,name,place_id,formatted_address,types,user_ratings_total,rating,lat,long,latlong
0,The Fire Department of the Government of Badung,ChIJkweO6so40i0R_IJc6237lZw,"Jl. Kebo Iwa No.39, Ubung Kaja, Kec. Denpasar Utara, Kota Denpasar, Bali 80116, Indonesia","fire_station,point_of_interest,establishment",16,4.5,-8.6185706,115.1888026,"-8.6185706,115.1888026"
1,Dinas Pemadam Kebakaran Kota Denpasar,ChIJESrqPsZA0i0Rjc6M6ZITYIE,"Jl. Imam Bonjol No.176, Pemecutan Klod, Kec. Denpasar Bar., Kota Denpasar, Bali 80113, Indonesia","fire_station,point_of_interest,establishment",29,4.5,-8.6748679,115.2021114,"-8.6748679,115.2021114"
2,Pemadam Kebakaran Kunti Seminyak Kuta Bali,ChIJTziD7SVH0i0R5etjTdNIyO4,"Jl. Kunti II No.113, Seminyak, Kec. Kuta, Kabupaten Badung, Bali 80361, Indonesia","fire_station,point_of_interest,establishment",7,3.7,-8.687073,115.1765925,"-8.687073,115.1765925"
3,Kuta Fire and Rescue Station,ChIJsc10AyFH0i0RkEcIt777FkA,"Jl. Majapahit No.17, Kuta, Kec. Kuta, Kabupaten Badung, Bali 80361, Indonesia","fire_station,point_of_interest,establishment",4,4.3,-8.7201635,115.1787868,"-8.7201635,115.1787868"
4,South Kuta Pechatu Fire Station,ChIJrxjgFCpb0i0RKVA9Go20Dp4,"54HR+VXJ, Perumahan Pecatu Graha, Jalan Griya Alam Pecatu, Ungasan, Kuta Selatan, Ungasan, Kec. Kuta Sel., Kabupaten Badung, Bali 80361, Indonesia","fire_station,point_of_interest,establishment",4,3.8,-8.820354,115.1423702,"-8.820354,115.1423702"
5,Pos Pemadam Kebakaran Renon,ChIJtYY6hA1B0i0Rbp62COwtXMk,"867Q+FP3, Jl. Juanda, Renon, Denpasar Selatan, Denpasar City, Bali 80226, Indonesia","fire_station,point_of_interest,establishment",0,0.0,-8.6863505,115.2392868,"-8.6863505,115.2392868"
6,Kantor Pemadam Kebakaran Puspem,ChIJMxWUPC850i0Rz2IWmg-39NQ,"95VH+HM3, Jl. Raya Sempidi, Sempidi, Kec. Mengwi, Kabupaten Badung, Bali 80351, Indonesia","fire_station,point_of_interest,establishment",6,5.0,-8.6061075,115.179157,"-8.6061075,115.179157"
7,Abiansemal Fire Department,ChIJj7eij4080i0RlvxrwOM3SG4,"Jl. Ciung Wanara No.11, Dauh Yeh Cani, Kec. Abiansemal, Kabupaten Badung, Bali 80352, Indonesia","fire_station,point_of_interest,establishment",2,5.0,-8.5196551,115.2088225,"-8.5196551,115.2088225"
8,Pos pemadam kebakaran kab. Klungkung,ChIJrQV8rv8R0i0R48235tkagqs,"FCC3+J84, Central Semarapura, Klungkung, Klungkung Regency, Bali 80761, Indonesia","fire_station,point_of_interest,establishment",1,5.0,-8.5284832,115.4033414,"-8.5284832,115.4033414"
9,Hydran Kebakaran,ChIJeSxjpnJE0i0Rbck1P1EFJb4,"65WG+4X6, Uluwatu St, Tuban, Kuta, Badung Regency, Bali 80361, Indonesia","fire_station,point_of_interest,establishment",0,0.0,-8.7547205,115.1773897,"-8.7547205,115.1773897"
10,UPT Badung Utara Dinas Pemadam Kebakaran Kab. Badung,ChIJUQVsxOg70i0R8B4v5hJ4A_0,"C5QC+Q2P, Jalan Raya, Mengwitani, Mengwi, Badung Regency, Bali 80351, Indonesia","fire_station,point_of_interest,establishment",5,4.4,-8.560527,115.1701104,"-8.560527,115.1701104"
11,Universindo Primasakti. PT,ChIJiebSYGA_0i0RfoL7yxJWMjA,"Jl. Raden Ajeng Kartini No.114, Dauh Puri Kaja, Kec. Denpasar Utara, Kota Denpasar, Bali 80231, Indonesia","fire_station,point_of_interest,establishment",1,1.0,-8.6479144,115.2139629,"-8.6479144,115.2139629"
12,Guna Aman Jaya UD,ChIJlbmI3OFA0i0RYiNUOiJB_i8,"Jl. Raya Sesetan No.143, Sesetan, Denpasar Selatan, Kota Denpasar, Bali 80223, Indonesia","fire_station,point_of_interest,establishment",0,0.0,-8.6875197,115.2168316,"-8.6875197,115.2168316"
13,Kantor Pemadam Kebakaran Petang,ChIJ93nmNG8h0i0RHRk3UI8GQcs,"H6X9+998, Jalan, Petang, Badung Regency, Bali 80353, Indonesia","point_of_interest,establishment",1,5.0,-8.401596,115.2184614,"-8.401596,115.2184614"
14,Tri Karya Utama. CV,ChIJLXnJDexA0i0RYUIDVLIuWpQ,"86G9+9MJ, Jl. Ir.Ida.Bagus Oka, Dauh Puri Klod, Kec. Denpasar Bar., Kota Denpasar, Bali 80237, Indonesia","fire_station,point_of_interest,establishment",0,0.0,-8.6740547,115.2191367,"-8.6740547,115.2191367"
15,Flobal Pratama CV,ChIJ75QIUU8_0i0Rerp83io05II,"JL. Jend Gatot Subroto Tengah, No. 369, Dauh Puri Kaja, 80111, Ubung, Denpasar Utara, Pemecutan Kaja, Kec. Denpasar Utara, Kota Denpasar, Bali 80111, Indonesia","fire_station,point_of_interest,establishment",0,0.0,-8.6390677,115.2019501,"-8.6390677,115.2019501"
16,Pemadam kebakaran kubutambahan,ChIJz3_m47KW0S0R5qnCv7TxhCU,"W57F+5QC, Bukti, Kubutambahan, Buleleng Regency, Bali 81171, Indonesia","fire_station,point_of_interest,establishment",0,0.0,-8.087053,115.1743947,"-8.087053,115.1743947"
17,Dinas Pemadam Kebakaran Tabanan,ChIJzZsng4g70i0RqetHUgZ0b8g,"F46H+C36, Delod Peken, Tabanan, Tabanan Regency, Bali 82121, Indonesia","fire_station,point_of_interest,establishment",4,4.3,-8.538959199999999,115.1276502,"-8.5389592,115.1276502"
18,Dinas Pemadam Kebakaran,ChIJU5JjQg5i0S0Ri_QV1coNS1I,"JJVP+26F, Pendem, Jembrana, Jembrana Regency, Bali 82218, Indonesia","point_of_interest,local_government_office,establishment",1,5.0,-8.357452499999999,114.6355916,"-8.3574525,114.6355916"
19,CV. Victory Bali,ChIJdyp7Jy5B0i0RIYPfAgdBIoE,"Jl. Raya Pemogan No.160-B, Pemogan, Denpasar Selatan, Kota Denpasar, Bali 80221, Indonesia","fire_station,point_of_interest,establishment",0,0.0,-8.7043289,115.1976488,"-8.7043289,115.1976488"
20,Diskar PB - Kota Bandung,ChIJaYJ_UsXnaC4RSJ876_K3pA4,"Jl. Sukabumi No.17, Kacapiring, Kec. Batununggal, Kota Bandung, Jawa Barat 40271, Indonesia","fire_station,point_of_interest,establishment",109,4.7,-6.9168696,107.6341168,"-6.9168696,107.6341168"
21,DAMKAR Kota Bandung,ChIJZbJNWKHDaC4R1gFOY40_IA4,"3M6C+4X2, Cipamokolan, Rancasari, Bandung City, West Java 40292, Indonesia","fire_station,point_of_interest,establishment",1,5.0,-6.9397394,107.6723763,"-6.9397394,107.6723763"
22,Pemadam Kebakaran Cihapit,ChIJVVVVFcrnaC4R73FJ4CaFF2c,"Cihapit, Bandung Wetan, Bandung Regency, West Java 40114, Indonesia","fire_station,point_of_interest,establishment",1,4.0,-6.9082952,107.6259713,"-6.9082952,107.6259713"
23,Dinas Kebakaran Kota Bandung,ChIJQ2xFy6bCaC4R9rDLB-l21Sk,"Jl. Aria Utama No.7, Cipamokolan, Kec. Rancasari, Kota Bandung, Jawa Barat 40292, Indonesia","point_of_interest,establishment",1,3.0,-6.9407155,107.672548,"-6.9407155,107.672548"
24,Pos Unit Damkar TKI,ChIJc5zgk0nvaC4R0Uq5N7F2Pig,"Jl. Taman Kopo Indah 3 No.22, Mekar Rahayu, Kec. Margaasih, Kabupaten Bandung, Jawa Barat 40218, Indonesia","fire_station,point_of_interest,establishment",19,4.8,-6.9693404,107.5528857,"-6.9693404,107.5528857"
25,ARFS building,ChIJyTlXCTPnaC4Rz9jHE5vp1CM,"3HWH+J5M, Husen Sastranegara, Cicendo, Bandung City, West Java 40174, Indonesia","fire_station,point_of_interest,establishment",0,0.0,-6.9034038,107.5777991,"-6.9034038,107.5777991"
26,UPT Diskar Pb Wilayah Utara,ChIJQVEcHTvnaC4RNtdLKso2qN4,"Jl. Sindang Sirna No.40, Gegerkalong, Kec. Sukajadi, Kota Bandung, Jawa Barat 40151, Indonesia","fire_station,point_of_interest,establishment",7,4.7,-6.877675099999999,107.5910415,"-6.8776751,107.5910415"
27,Dinas Kebakaran Dan Penanggulangan Bencana Kota Bandung UPT. Selatan,ChIJ2ybo4LboaC4RUNDip1pyNnw,"Jl. Caringin No.103, Babakan Ciparay, Kec. Babakan Ciparay, Kota Bandung, Jawa Barat 40223, Indonesia","local_government_office,point_of_interest,establishment",6,4.8,-6.9457976,107.5828845,"-6.9457976,107.5828845"
28,Alfa Galuh Perkasa. CV,ChIJadkf_aLmaC4Rlgl-IjVJ40I,"Jl. Leuwi Panjang Gg. Rukunsari II No.I/6, Situsaeur, Kec. Bojongloa Kidul, Kota Bandung, Jawa Barat 40153, Indonesia","fire_station,point_of_interest,establishment",1,5.0,-6.943018299999999,107.5960189,"-6.9430183,107.5960189"
29,CV Sukses Jaya Pemadam Distributor Alat Pemadam Api Bandung,ChIJnf-DCfjnaC4RsvphOYMFZzU,"3HGQ+RW7 Ruko Plaza Pagarsih, Jamika, Kec. Bojongloa Kaler, Kota Bandung, Jawa Barat 40231, Indonesia","point_of_interest,establishment",18,5.0,-6.9229587,107.5898098,"-6.9229587,107.5898098"
30,Dinas Pemadam Kebakaran dan Penyelamatan Kabupaten Bandung,ChIJQfoEFs3taC4RzY5819wXDQM,"Jalan Raya Soreang Kopo KM.17, Pamekaran, Soreang, Pamekaran, Kec. Soreang, Kabupaten Bandung, Jawa Barat 40912, Indonesia","fire_station,point_of_interest,establishment",47,4.7,-7.0256541,107.5252319,"-7.0256541,107.5252319"
31,Pemadam Kelaparan,ChIJrTlFmtbnaC4R4jMeXE-waKY,"Jl. Laswi No.105 - 107, Samoja, Kec. Batununggal, Kota Bandung, Jawa Barat 40273, Indonesia","point_of_interest,establishment",0,0.0,-6.924099399999999,107.6280587,"-6.9240994,107.6280587"
32,Disdamkar Kabupaten Bandung Pos Cileunyi,ChIJ-Z6l-PDDaC4RWG7U8byVHX0,"Komplek Kantor, Jl. Percobaan No.39, Cileunyi Kulon, Kec. Cileunyi, Kabupaten Bandung, Jawa Barat 40622, Indonesia","fire_station,point_of_interest,establishment",7,5.0,-6.9412033,107.7436176,"-6.9412033,107.7436176"
33,Agen Alat Pemadam Api Ringan (APAR),ChIJdzm6OZbCaC4RRj6Eh15QT-E,"Jl. Riung Purna III No.4, Cisaranten Kidul, Kec. Gedebage, Kota Bandung, Jawa Barat 40295, Indonesia","home_goods_store,store,point_of_interest,establishment",23,4.6,-6.9469843,107.6838872,"-6.9469843,107.6838872"
34,Pemadam Kebakaran Kab. Bandung Barat,ChIJpbW7tq3kaC4RjzJoApB3ya0,"4FRM+GFR, Kertajaya, Padalarang, West Bandung Regency, West Java 40553, Indonesia","fire_station,point_of_interest,establishment",24,4.9,-6.8586361,107.4836479,"-6.8586361,107.4836479"
35,Kantor Pemadam Kebakaran Kota Batam,ChIJ351KbMyO2TER6ULMBDGoiAk,"32QM+9CW, JL. Ahmad Yani, Duriangkang, Sukajadi, Kec. Batam Kota, Kota Batam, Kepulauan Riau 29444, Indonesia","fire_station,point_of_interest,establishment",4,5.0,1.0884906,104.033566,"1.0884906,104.033566"
36,Fire Station Sei Panas,ChIJWZ6C-XSJ2TERqKI6YMV3i-I,"42PH+73J, Jl. Laksamana Bintan, Sungai Panas, Kec. Batam Kota, Kota Batam, Kepulauan Riau 29432, Indonesia","fire_station,point_of_interest,establishment",14,4.7,1.1357006,104.0276546,"1.1357006,104.0276546"
37,Dinas Pemadam Kebakaran,ChIJq7dyBjuN2TERZcfr74C9-Qs,"3W3H+8RF, Jalan, Tanjung Uncang, Batu Aji, Batam City, Riau Islands 29425, Indonesia","fire_station,point_of_interest,establishment",1,5.0,1.0533645,103.9294591,"1.0533645,103.9294591"
38,Dinas Pemadam Kebakaran,ChIJmQ0fJTqL2TER2vlrV8W9tbY,"4WGH+972, Jalan R. E. Martadinata, Tj. Pinggir, Kec. Sekupang, Kota Batam, Kepulauan Riau 29433, Indonesia","fire_station,point_of_interest,establishment",6,5.0,1.1258814,103.9281451,"1.1258814,103.9281451"
39,Dinas Pemadam Kebakaran,ChIJeWctH8eO2TERkOGeg8s9GVY,"32QM+9CW, Sukajadi, Batam Kota, Batam City, Riau Islands 29444, Indonesia","fire_station,point_of_interest,establishment",3,4.3,1.0884953,104.0335784,"1.0884953,104.0335784"
40,PBK BP Batam Wilayah Batu Ampar,ChIJCarU0gKK2TERdgr60AznliI,"5283+WXP, Jl. El Nusa, Batu Merah, Kec. Batu Ampar, Kota Batam, Kepulauan Riau, Indonesia","fire_station,point_of_interest,establishment",1,5.0,1.1673488,104.0049722,"1.1673488,104.0049722"
41,Pos Pemadam Kebakaran Punggur,ChIJJUlJkzWF2TERUuMqTdAu4HQ,"345F+X8X, Kabil, Nongsa, Batam City, Riau Islands 29467, Indonesia","fire_station,point_of_interest,establishment",0,0.0,1.0599941,104.1233452,"1.0599941,104.1233452"
42,Tembesi Fire Station Post,ChIJV4vycKCR2TERAp8nWMXpcI4,"X2RM+FRJ, Jl. Trans Barelang, Tembesi, Kec. Sagulung, Kota Batam, Kepulauan Riau 29472, Indonesia","fire_station,point_of_interest,establishment",7,5.0,0.9912502999999999,104.0345771,"0.9912503,104.0345771"
43,Pos Pemadam Kebakaran Kabil,ChIJVYUNwuqF2TERlkJy5q9XrWQ,"34MC+9HX, Kabil, Nongsa, Batam City, Riau Islands 29467, Indonesia","fire_station,point_of_interest,establishment",6,3.7,1.0834145,104.1215811,"1.0834145,104.1215811"
44,Pos Pemadam Kebakaran Nongsa,ChIJyyeT4AqH2TERAos4IV503N0,"Batu Besar, Nongsa, Batam City, Riau Islands 29466, Indonesia","fire_station,point_of_interest,establishment",0,0.0,1.1621436,104.1188012,"1.1621436,104.1188012"
45,PENANGGULANGAN BAHAYA KEBAKARAN ( PBK ) BP BATAM,ChIJz8jdHseO2TERNdHPtAs483A,"32QM+9FH, Jl. Ahmad Yani, Muka Kuning, Kec. Sei Beduk, Kota Batam, Kepulauan Riau 29433, Indonesia","fire_station,point_of_interest,establishment",4,3.8,1.088426,104.0337199,"1.088426,104.0337199"
46,Kantor Kebakaran,ChIJIczJY2GO2TER34M5WYC-y1w,"326F+FW9, Kabil, Nongsa, Batam City, Riau Islands 29433, Indonesia","fire_station,point_of_interest,establishment",0,0.0,1.0611614,104.0248564,"1.0611614,104.0248564"
47,Fire Dept,ChIJMyd7ynSF2TERN_77DUadmk0,"346F+47J, Kabil, Nongsa, Batam City, Riau Islands 29467, Indonesia","fire_station,point_of_interest,establishment",0,0.0,1.060298,104.1231954,"1.060298,104.1231954"
48,Kantor Pemadam Kebakaran,ChIJS4G4EnqL2TERefVmxvoNIYw,"Jl. Pramuka No.2, Sungai Harapan, Kec. Sekupang, Kota Batam, Kepulauan Riau 29444, Indonesia","point_of_interest,establishment",3,4.7,1.1092916,103.9540598,"1.1092916,103.9540598"
49,Direktorat Pengamanan BP Batam,ChIJ-2ruOjqL2TERFwxBkJAqPUM,"4WGH+86X, Jl. RE Martadinata, Tj. Pinggir, Kec. Sekupang, Kota Batam, Kepulauan Riau 29444, Indonesia","fire_station,point_of_interest,establishment",0,0.0,1.1258609,103.9281026,"1.1258609,103.9281026"
50,Rumah Pak Acong,ChIJuyAcVUaP2TERAirOxSsbw0E,"Puri Agung No.2 A, Mangsang, Sei Beduk, Batam City, Riau Islands 29433, Indonesia","fire_station,point_of_interest,establishment",0,0.0,1.032814,104.0533302,"1.032814,104.0533302"
51,Hydrant Depan HMS Patam Lestari,ChIJodnEI5mL2TERamsXW_XBLYc,"4X99+34P, Jl. Tiban V, Patam Lestari, Kec. Sekupang, Kota Batam, Kepulauan Riau 29424, Indonesia","fire_station,point_of_interest,establishment",0,0.0,1.1177092,103.9678231,"1.1177092,103.9678231"
52,Jakarta Fire and Rescue Agency,ChIJkQLh1HP2aS4RI1EBxQUgL3c,"Jl. Kyai Haji Zainul Arifin No.71, RT.10/RW.10, Duri Pulo, Kecamatan Gambir, Kota Jakarta Pusat, Daerah Khusus Ibukota Jakarta 10140, Indonesia","fire_station,point_of_interest,establishment",111,4.6,-6.1618546,106.8084323,"-6.1618546,106.8084323"
53,Kantor Pemadam Kebakaran Jakarta Utara,ChIJAawJ1Q4gai4RyZvQqwyqrrU,"Jl. Komp. Pemadam Kebakaran No.113, RT.11/RW.6, Semper Bar., Kec. Cilincing, Jkt Utara, Daerah Khusus Ibukota Jakarta 14130, Indonesia","fire_station,point_of_interest,establishment",59,4.8,-6.127199,106.926699,"-6.127199,106.926699"
54,Pemadam Kebakaran Prov. DKI Jakarta,ChIJM-tOtFntaS4R6l8Xro8pZLA,"Jl. Komp. TMII Pintu 3, Lubang Buaya, Cipayung, Lubang Buaya, Kec. Cipayung, Kota Jakarta Timur, Daerah Khusus Ibukota Jakarta 13810, Indonesia","fire_station,point_of_interest,establishment",16,4.8,-6.2994175,106.8987587,"-6.2994175,106.8987587"
55,Pemerintah Kotamadya Jakarta Pusat Suku Dinas Pemadam Kebakaran Pos Karet,ChIJfSJTcKP2aS4Rwy-GoWRiuxA,"Jl. Penjernihan 1 No.29, RT.10/RW.6, Bend. Hilir, Kecamatan Tanah Abang, Kota Jakarta Pusat, Daerah Khusus Ibukota Jakarta 10210, Indonesia","fire_station,point_of_interest,establishment",11,3.9,-6.2016621,106.8084023,"-6.2016621,106.8084023"
56,Lebak Bulus Fire Station,ChIJ42YVv83xaS4RhkxBLCwLAWU,"Jl. Raya Pasar Jum'at, RT.10/RW.7, Pd. Pinang, Kec. Kby. Lama, Kota Jakarta Selatan, Daerah Khusus Ibukota Jakarta 12310, Indonesia","fire_station,point_of_interest,establishment",82,4.6,-6.2888991,106.7750208,"-6.2888991,106.7750208"
57,Dinas Pemadam Kebakaran Sektor Gropet 311-01,ChIJlafigDT2aS4Rl65DssaYnAw,"RQWF+W93, RT.10/RW.4, Wijaya Kusuma, Grogol petamburan, West Jakarta City, Jakarta 11460, Indonesia","fire_station,point_of_interest,establishment",9,5.0,-6.152751,106.7734024,"-6.152751,106.7734024"
58,Dinas Penanggulangan Kebakaran Dan Penyelamatan (Damkar Johar),ChIJw3zEC1H0aS4RFMidIk5Jcm8,"Jl. Percetakan Negara II, RT.12/RW.3, Johar Baru, Kec. Johar Baru, Kota Jakarta Pusat, Daerah Khusus Ibukota Jakarta 10560, Indonesia","fire_station,point_of_interest,establishment",140,4.9,-6.1820936,106.8563319,"-6.1820936,106.8563319"
59,Suku Dinas Pemadam Kebakaran,ChIJ9YooKDn0aS4R4ovBQD_Azo4,"Taman Ismail Marzuki Jl. Cikini Raya No.73, RT.1/RW.2, Cikini, Kec. Menteng, Kota Jakarta Pusat, Daerah Khusus Ibukota Jakarta 10330, Indonesia","fire_station,point_of_interest,establishment",11,4.5,-6.1907324,106.8384689,"-6.1907324,106.8384689"
60,Pos Pemadam kebakaran Casablanca,ChIJbZcJeozzaS4Rqbq-cMPo_RY,"Jalan Casablanca Raya No.33B, RT.3/RW.5, Menteng Dalam, Kec. Tebet, Kota Jakarta Selatan, Daerah Khusus Ibukota Jakarta 12960, Indonesia","fire_station,point_of_interest,establishment",11,3.7,-6.2219596,106.8450392,"-6.2219596,106.8450392"
61,"Kebayoran Baru Fire station, South Jakarta",ChIJnXUqVg3xaS4RSJSTye1VxU0,"Jl. Radio II No.4, RT.2/RW.4, Kramat Pela, Kec. Kby. Baru, Kota Jakarta Selatan, Daerah Khusus Ibukota Jakarta 12130, Indonesia","fire_station,point_of_interest,establishment",3,4.3,-6.2489658,106.7936533,"-6.2489658,106.7936533"
62,Pemadam Kebakaran Duri Pulo,ChIJ_RfFJ3L2aS4ROznlSWeVpok,"Jl. Imam Mahbud No.57, RT.2/RW.2, Duri Pulo, Kecamatan Gambir, Kota Jakarta Pusat, Daerah Khusus Ibukota Jakarta 10140, Indonesia","fire_station,point_of_interest,establishment",1,5.0,-6.161531699999999,106.8079064,"-6.1615317,106.8079064"
63,Pemadam kebakaran,ChIJtzimT7b1aS4R3WCIFSXgKRk,"No, Jl. Bungur Besar Raya No.20, RT.13/RW.1, Kel. Senen, Kec. Senen, Kota Jakarta Pusat, Daerah Khusus Ibukota Jakarta 10460, Indonesia","fire_station,point_of_interest,establishment",8,4.9,-6.1687338,106.8433395,"-6.1687338,106.8433395"
64,Kantor Pemadam Kebakaran,ChIJeYgqV_j1aS4RexgPbXZilkw,"Jl. Mangga Dua Dalam No.15, RT.8/RW.7, Mangga Dua Sel., Kecamatan Sawah Besar, Kota Jakarta Pusat, Daerah Khusus Ibukota Jakarta 10730, Indonesia","fire_station,point_of_interest,establishment",1,5.0,-6.137941,106.82652,"-6.137941,106.82652"
65,Suku Dinas Pemadam Kebakaran,ChIJhQg3dyf3aS4RQR3XxkxdH6M,"1, Jl. C No.3, RT.3/RW.1, Kb. Jeruk, Kec. Kb. Jeruk, Kota Jakarta Barat, Daerah Khusus Ibukota Jakarta 10350, Indonesia","fire_station,point_of_interest,establishment",7,4.3,-6.2004763,106.7682822,"-6.2004763,106.7682822"
66,Damkar Jakpus,ChIJ0_jaltX1aS4RhrbTdsrj8qk,"Jl. Tanah Abang I No.1, RW.8, Petojo Sel., Kecamatan Gambir, Kota Jakarta Pusat, Daerah Khusus Ibukota Jakarta 10640, Indonesia","fire_station,point_of_interest,establishment",6,4.3,-6.1731004,106.8190484,"-6.1731004,106.8190484"
67,Dinas Pemadam Kebakaran Mampang Prapatan,ChIJyxTWq93zaS4RRMyqsiljoyA,"Jl. Kapten Tendean No.1, RT.1/RW.2, Kuningan Bar., Kec. Mampang Prpt., Kota Jakarta Selatan, Daerah Khusus Ibukota Jakarta 12710, Indonesia","fire_station,point_of_interest,establishment",11,4.6,-6.2403372,106.8266926,"-6.2403372,106.8266926"
68,Dept. of Fire and Disaster Management,ChIJf-kbTfMdai4RyPW8qy9_QLQ,"VQ9V+VVH, Jl. Tanah Merah, RT.1/RW.16, Penjaringan, Kec. Penjaringan, Jkt Utara, Daerah Khusus Ibukota Jakarta 14440, Indonesia","fire_station,point_of_interest,establishment",2,5.0,-6.130262699999999,106.7947245,"-6.1302627,106.7947245"
69,Dinas Pemadam Kebakaran Kecamatan Pasar Minggu,ChIJt_iVmRPyaS4RTafqQ7PKf78,"Jl. Salihara No.2, RT.1/RW.1, Jati Padang, Ps. Minggu, Kota Jakarta Selatan, Daerah Khusus Ibukota Jakarta 12540, Indonesia","fire_station,point_of_interest,establishment",22,3.8,-6.2844029,106.8377027,"-6.2844029,106.8377027"
70,Dinas Pemadam Kebakaran Mangga Dua,ChIJbQ9XV_j1aS4R4997s9tZhRM,"Jl. Mangga Dua Dalam No.15, RT.1/RW.12, Mangga Dua Sel., Kecamatan Sawah Besar, Kota Jakarta Pusat, Daerah Khusus Ibukota Jakarta 10730, Indonesia","fire_station,point_of_interest,establishment",3,5.0,-6.1375433,106.8270892,"-6.1375433,106.8270892"
71,Pemadam Kebakaran Tanjung Duren,ChIJD4CkTln2aS4ReALd_Q7lXjk,"12, Jl. Tanjung Duren Raya No.1, RW.2, Tj. Duren Utara, Kec. Grogol petamburan, Daerah Khusus Ibukota Jakarta 11470, Indonesia","fire_station,point_of_interest,establishment",42,4.5,-6.1735298,106.7879343,"-6.1735298,106.7879343"
72,Pemadam Kebakaran Kecamatan Tebet,ChIJ_9eG8r7zaS4RVNWrNAGQi3A,"Jl. Prof. DR. Soepomo No.47, RT.10/RW.6, Tebet Bar., Kec. Tebet, Kota Jakarta Selatan, Daerah Khusus Ibukota Jakarta 12810, Indonesia","fire_station,point_of_interest,establishment",22,4.8,-6.2400519,106.8456267,"-6.2400519,106.8456267"
73,Dinas Pemadam Kebakaran,ChIJ2TAkieP0aS4RuX4Vdx84cHE,"RVCJ+67H, RT.8/RW.11, Kayu Putih, Pulo Gadung, East Jakarta City, Jakarta 13210, Indonesia","fire_station,point_of_interest,establishment",1,5.0,-6.1794367,106.8807322,"-6.1794367,106.8807322"
74,Pusdiklatkar Dinas Pemadam Kebakaran DKI Jakarta,ChIJEVtIgxDtaS4Rnaj24NgMq00,"6, Jl. Raya Ciracas No.113, Kec. Ciracas, Daerah Khusus Ibukota Jakarta 13740, Indonesia","fire_station,point_of_interest,establishment",204,4.8,-6.328544000000001,106.8797371,"-6.328544,106.8797371"
75,Dinas Pemadam Kebakaran,ChIJwxXNSt7waS4R7cfJw7QJF68,"Jl. Ciledug Raya, RT.7/RW.5, Cipulir, Kec. Kby. Lama, Kota Jakarta Selatan, Daerah Khusus Ibukota Jakarta 12230, Indonesia","fire_station,point_of_interest,establishment",7,4.7,-6.2382146,106.7676953,"-6.2382146,106.7676953"
76,SUDIN JAKARTA PUSAT,ChIJOe9UI-D3aS4Rq9PQqYRZ77k,"RRQ5+79G, RT.10/RW.10, Duri Pulo, Gambir, Central Jakarta City, Jakarta 10140, Indonesia","fire_station,point_of_interest,establishment",2,5.0,-6.1618102,106.808442,"-6.1618102,106.808442"
77,pemadam kebakaran pejaten barat,ChIJRVNHLkzzaS4Ra2MvnvZ0yS4,"PRCJ+F5P, RT.1/RW.7, West Pejaten, Pasar Minggu, South Jakarta City, Jakarta 12510, Indonesia","fire_station,point_of_interest,establishment",4,5.0,-6.2787595,106.830513,"-6.2787595,106.830513"
78,Pemadam Kebakaran,ChIJ2SW-aiCLaS4RE5YrcjrvZ-I,"Jalan Rw. 07. Kelurahan Cakung, Jl. Inspeksi Pol Ppd, RT.2/RW.7, Cakung Bar., Jakarta Timur, DKI Jakarta, Daerah Khusus Ibukota Jakarta 13910, Indonesia","fire_station,point_of_interest,establishment",7,4.0,-6.1738328,106.9337881,"-6.1738328,106.9337881"
79,PEMADAM KEBAKARAN SEKTOR TAMBORA,ChIJsU8qUfgdai4RFtnJS57M1vk,"Jl. Tiang Bendera I No.5, RW.3, Roa Malaka, Kec. Tambora, Kota Jakarta Barat, Daerah Khusus Ibukota Jakarta 11230, Indonesia","fire_station,point_of_interest,establishment",12,4.8,-6.132953,106.8081358,"-6.132953,106.8081358"
80,"Pos Pemadam Kebakaran, Tanah Abang",ChIJO2Md65z2aS4R7XqOlqBpAoI,"Ps. Tanah Abang, Jl. Kb. Jati No.214, RT.1/RW.9, Kb. Kacang, Kecamatan Tanah Abang, Kota Jakarta Pusat, Daerah Khusus Ibukota Jakarta 10240, Indonesia","fire_station,point_of_interest,establishment",2,4.0,-6.1890375,106.8130423,"-6.1890375,106.8130423"
81,Pemadam Kebakaran,ChIJiXod4dP2aS4Raxk4ZluS1RA,"Jl. Raya Kebayoran Lama No.3, RT.2/RW.1, Grogol Utara, Kec. Kby. Lama, Kota Jakarta Selatan, Daerah Khusus Ibukota Jakarta 11540, Indonesia","fire_station,point_of_interest,establishment",7,4.4,-6.2138195,106.777787,"-6.2138195,106.777787"
82,Sector Office Fire Kemayoran,ChIJ0xU9M731aS4R4Ud6fcTjC7I,"RRVV+R4X, Jl. Angkasa Pura, Kemayoran, RW.10, Gn. Sahari Sel., Kec. Kemayoran, Kota Jakarta Pusat, Daerah Khusus Ibukota Jakarta 10610, Indonesia","fire_station,point_of_interest,establishment",20,4.4,-6.1554082,106.8427742,"-6.1554082,106.8427742"
83,Sektor Pemadam Kebakaran & Penyelamatan,ChIJKR5Zs3_1aS4RI1NvTt66ws8,"Jl. Mangga Dua Raya Dalam No.15, RT.1/RW.12, Mangga Dua Sel., Kecamatan Sawah Besar, Kota Jakarta Pusat, Daerah Khusus Ibukota Jakarta 10730, Indonesia","fire_station,point_of_interest,establishment",2,5.0,-6.1375614,106.8271202,"-6.1375614,106.8271202"
84,Pemadam Kebakaran Menteng,ChIJnTcdXyD1aS4RtWAWTIf9nBs,"Jl. Cikini Raya No.16, RW.2, Cikini, Kec. Menteng, Kota Jakarta Pusat, Daerah Khusus Ibukota Jakarta 10330, Indonesia","fire_station,point_of_interest,establishment",1,5.0,-6.1906288,106.8392384,"-6.1906288,106.8392384"
85,Posko Dinas Pemadam Kebakaran,ChIJg0veQeTyaS4Rrmmu6EDlZuQ,"Jl. Kamboja VII No.36, RT.10/RW.1, Kb. Pala, Kec. Makasar, Kota Jakarta Timur, Daerah Khusus Ibukota Jakarta 13650, Indonesia","fire_station,point_of_interest,establishment",6,5.0,-6.2627001,106.8809991,"-6.2627001,106.8809991"
86,Pemadam Kebakaran Jakarta Utara,ChIJSarDc-sfai4RtrngS1ta8RM,"no, Jl. Yos Sudarso No.1, RT.2/RW.12, Rawabadak Utara, Kec. Koja, Jkt Utara, Daerah Khusus Ibukota Jakarta 14320, Indonesia","fire_station,point_of_interest,establishment",1,5.0,-6.1150651,106.8934496,"-6.1150651,106.8934496"
87,Dinas Kebakaran Jakarta,ChIJrWev73LyaS4RUgLSp4-tYrc,"PR5V+X9X, Jl. Raya Tj. Barat, RT.9/RW.7, Ps. Minggu, Kota Jakarta Selatan, Daerah Khusus Ibukota Jakarta 12530, Indonesia","fire_station,point_of_interest,establishment",0,0.0,-6.2900092,106.8434722,"-6.2900092,106.8434722"
88,Pemadam Kebakaran Kramat Djati Jakarta Timur,ChIJ--7YdevzaS4Ro3AaSHxIqHQ,"Jl. Kerja Bakti II No.2, RT.2/RW.4, Kramat Jati, Kec. Kramat jati, Kota Jakarta Timur, Daerah Khusus Ibukota Jakarta 13570, Indonesia","fire_station,point_of_interest,establishment",3,5.0,-6.277487199999999,106.8714197,"-6.2774872,106.8714197"
89,Pesanggrahan Bintaro Fire Station,ChIJ3TauDffwaS4R_4nQGDgzEoM,"Jl. Cenek No.45, RT.5/RW.3, Pesanggrahan, Kec. Pesanggrahan, Kota Jakarta Selatan, Daerah Khusus Ibukota Jakarta 12320, Indonesia","fire_station,point_of_interest,establishment",14,4.4,-6.257298899999999,106.7571538,"-6.2572989,106.7571538"
90,Kantor Pemadam Kebakaran Petamburan,ChIJP1CaqzT3aS4RHURNjmC5Z2s,"Jl. K.S. Tubun No.71-73, RT.2/RW.3, Petamburan, Kecamatan Tanah Abang, Kota Jakarta Pusat, Daerah Khusus Ibukota Jakarta 11410, Indonesia","fire_station,point_of_interest,establishment",2,5.0,-6.1939779,106.8055035,"-6.1939779,106.8055035"
91,Pemadam Kebakaran Rasuna Epicentrum,ChIJ37MmsfXzaS4Ratm7N6gN6k4,"QRJP+CX5, RT.17/RW.1, Menteng Atas, Setiabudi, South Jakarta City, Jakarta 12960, Indonesia","fire_station,point_of_interest,establishment",2,5.0,-6.2189726,106.8374674,"-6.2189726,106.8374674"
92,Suku Dinas Jakarta Utara Pos Kelapa Gading,ChIJXamPijb1aS4R7W8gxSuzuDg,"Jl. Raya Pelepah Indah No.18, RT.9/RW.18, Klp. Gading Tim., Kec. Klp. Gading, Jkt Utara, Daerah Khusus Ibukota Jakarta 14240, Indonesia","fire_station,point_of_interest,establishment",4,4.0,-6.156003,106.9050223,"-6.156003,106.9050223"
93,Kantor Sektor 1 Pemadam Kebakaran,ChIJMc2XgTT2aS4RU8n5gRoBTYA,"Jl. Perdana No.10, RT.10/RW.4, Wijaya Kusuma, Kec. Grogol petamburan, Kota Jakarta Barat, Daerah Khusus Ibukota Jakarta 11460, Indonesia","fire_station,point_of_interest,establishment",6,4.5,-6.1527204,106.7734847,"-6.1527204,106.7734847"
94,"POS Pemadam Kebakaran Ciganjur, Jakarta Selatan",ChIJE2Z8y4vuaS4Reo1onzJQQU0,"1, RT.2/RW.1, Ciganjur, Kec. Jagakarsa, Kota Jakarta Selatan, Daerah Khusus Ibukota Jakarta 16514, Indonesia","fire_station,point_of_interest,establishment",11,4.6,-6.3448172,106.7987901,"-6.3448172,106.7987901"
95,Pemadam Kebakaran Batu Ampar,ChIJ3WuoPV7yaS4RlX2xlXsPn2Y,"Jalan Batu Ampar III No.19, RT.12/RW.2, Batu Ampar, Kramatjati, RT.12/RW.2, Batu Ampar, Kec. Kramat jati, Kota Jakarta Timur, Daerah Khusus Ibukota Jakarta 13520, Indonesia","fire_station,point_of_interest,establishment",12,4.2,-6.276579799999999,106.8607885,"-6.2765798,106.8607885"
96,Kantor Pemadam Kebakaran Duren Sawit,ChIJoWZ2WdqMaS4RQJsmEaxu4Wk,"QW3G+2CP, Jl. Klp. Sawit Raya, RT.4/RW.10, Pd. Klp., Kec. Duren Sawit, Kota Jakarta Timur, Daerah Khusus Ibukota Jakarta 13450, Indonesia","fire_station,point_of_interest,establishment",4,4.0,-6.247421,106.9260551,"-6.247421,106.9260551"
97,Pemadam Kebakaraan Kebun Jeruk Baru,ChIJF5yw8OL2aS4RdMbElCk1zR8,"Blok C. 2, Jl. Perumahan Kb. Jeruk Baru Blok C. 2 No.1, RT.8/RW.8, Kb. Jeruk, Kec. Kb. Jeruk, Kota Jakarta Barat, Daerah Khusus Ibukota Jakarta 11530, Indonesia","fire_station,point_of_interest,establishment",4,5.0,-6.1901329,106.7726649,"-6.1901329,106.7726649"
98,Kantor Pemadam Kebakaran Dan Penyelamatan Cempaka Putih,ChIJH7vJJiz1aS4RxnOMnsgpsGo,"RT.16/RW.2, Cempaka Putih Timur, Cempaka Putih, RT.16/RW.2, Cemp. Putih Tim., Kec. Cemp. Putih, Kota Jakarta Pusat, Daerah Khusus Ibukota Jakarta 10510, Indonesia","fire_station,point_of_interest,establishment",0,0.0,-6.1851838,106.8738557,"-6.1851838,106.8738557"
99,Pos Pemadam Kebakaran Pluit,ChIJ0YSSyJcdai4RAbYT37ndos8,"Jl. Pluit Barat Raya No.800, RW.7, Pluit, Kec. Penjaringan, Jkt Utara, Daerah Khusus Ibukota Jakarta 14450, Indonesia","fire_station,point_of_interest,establishment",2,5.0,-6.1174994,106.784716,"-6.1174994,106.784716"
100,Damkar PB Pemadam Kebakaran,ChIJAbDQvQD1aS4RgcJWaIp1ykw,"Ruko Cemp. Putih Permai, Jl. Letjen Suprapto, RT.12/RW.5, Cemp. Putih Tim., Kec. Cemp. Putih, DKI Jakarta, Daerah Khusus Ibukota Jakarta 10520, Indonesia","fire_station,point_of_interest,establishment",0,0.0,-6.171125,106.86612,"-6.171125,106.86612"
101,Pos Pemadam Senen,ChIJvdUwn2H1aS4RBezBb5Iy13k,"RRGV+X9J, Jln. Stasiun, RW.3, Senen, Kec. Senen, Kota Jakarta Pusat, Daerah Khusus Ibukota Jakarta 10410, Indonesia","fire_station,point_of_interest,establishment",3,5.0,-6.172528100000001,106.8433959,"-6.1725281,106.8433959"
102,Pemadam Kebakaran,ChIJIb67MKYdai4RLndSX0UhKVE,"Jl. Pendaratan Ikan No.3, RT.13/RW.11, Pluit, Kec. Penjaringan, Jkt Utara, Daerah Khusus Ibukota Jakarta 14450, Indonesia","fire_station,point_of_interest,establishment",23,4.5,-6.108399299999999,106.7736033,"-6.1083993,106.7736033"
103,Pos Pemadam Kebakaran Petamburan,ChIJCR13f3T3aS4RUNYEpsxx1_Y,"Jl. K.S. Tubun Jl. Pejompongan Raya No.69, RT.2/RW.3, Petamburan, Kecamatan Tanah Abang, Kota Jakarta Pusat, Daerah Khusus Ibukota Jakarta 11410, Indonesia","fire_station,point_of_interest,establishment",2,5.0,-6.1938078,106.8055053,"-6.1938078,106.8055053"
104,Kantor Sektor Pemadam Kebakaran Kelapa Gading,ChIJ7XHwRtb0aS4R5uEHe2GLrLk,"Jl. Komp. PLN No.6, RT.6/RW.14, Klp. Gading Tim., Kec. Klp. Gading, Jkt Utara, Daerah Khusus Ibukota Jakarta 14240, Indonesia","fire_station,point_of_interest,establishment",10,4.5,-6.175989299999999,106.9044475,"-6.1759893,106.9044475"
105,Dinas Pemadam Kebakaran Slipi,ChIJgYmDl5f2aS4RTyLOTXMc7Jw,"Jl. Slipi III No.10, RT.12/RW.6, Slipi, Kec. Palmerah, Kota Jakarta Barat, Daerah Khusus Ibukota Jakarta 11410, Indonesia","fire_station,point_of_interest,establishment",1,5.0,-6.195624899999999,106.8047261,"-6.1956249,106.8047261"
106,sudin damkar Jakarta timur,ChIJ4UjQDEH1aS4RprdWQFWzkEk,"Jl. Pemuda No.11, RT.11/RW.14, Rawamangun, Kec. Pulo Gadung, Kota Jakarta Timur, Daerah Khusus Ibukota Jakarta 13220, Indonesia","fire_station,point_of_interest,establishment",16,4.8,-6.1927902,106.8758884,"-6.1927902,106.8758884"
107,Markas Pemadam Kebakaran,ChIJGVWeWDX1aS4R4ZekaOhVlug,"RV4P+RRF, RT.8/RW.5, Rawamangun, Pulo Gadung, East Jakarta City, Jakarta 13220, Indonesia","fire_station,point_of_interest,establishment",2,5.0,-6.1929488,106.8870598,"-6.1929488,106.8870598"
108,Casablanca Fire Station,ChIJKwwYW4vzaS4RyR_fs1wnkjU,"Jl. Menteng Pulo No.1, RT.3/RW.9, Menteng Atas, Kecamatan Setiabudi, Kota Jakarta Selatan, Daerah Khusus Ibukota Jakarta 12960, Indonesia","fire_station,point_of_interest,establishment",1,5.0,-6.2218596,106.845043,"-6.2218596,106.845043"
109,Pesanggrahan Ciledug Fire Station,ChIJ9a4JR_7xaS4Ry75wiRHQW10,"Jl. Ciledug Raya No.2, RT.4/RW.3, Petukangan Utara, Kec. Pesanggrahan, Kota Jakarta Selatan, Daerah Khusus Ibukota Jakarta 12270, Indonesia","fire_station,point_of_interest,establishment",11,5.0,-6.236769,106.7577621,"-6.236769,106.7577621"
110,"Cipete Fire Station, South Jakarta",ChIJxZw3EJDxaS4Raj0NJzPKRGc,"Jalan Raya Melati No.11, RT.11/RW.2, Cipete Sel., Kec. Cilandak, Kota Jakarta Selatan, Daerah Khusus Ibukota Jakarta 12410, Indonesia","fire_station,point_of_interest,establishment",12,4.7,-6.269723399999999,106.805165,"-6.2697234,106.805165"
111,Kantor Pemadam Jatinegara,ChIJYR7eUXDzaS4RccOTqc1PNLI,"Jl. Panti Asuhan No.8, RT.11/RW.1, Cipinang Cempedak, Kecamatan Jatinegara, Kota Jakarta Timur, Daerah Khusus Ibukota Jakarta 13340, Indonesia","fire_station,point_of_interest,establishment",1,5.0,-6.2279505,106.8746082,"-6.2279505,106.8746082"
112,Jakarta Fire and Rescue Agency,ChIJkQLh1HP2aS4RI1EBxQUgL3c,"Jl. Kyai Haji Zainul Arifin No.71, RT.10/RW.10, Duri Pulo, Kecamatan Gambir, Kota Jakarta Pusat, Daerah Khusus Ibukota Jakarta 10140, Indonesia","fire_station,point_of_interest,establishment",111,4.6,-6.1618546,106.8084323,"-6.1618546,106.8084323"
113,Kantor Pemadam Kebakaran Jakarta Utara,ChIJAawJ1Q4gai4RyZvQqwyqrrU,"Jl. Komp. Pemadam Kebakaran No.113, RT.11/RW.6, Semper Bar., Kec. Cilincing, Jkt Utara, Daerah Khusus Ibukota Jakarta 14130, Indonesia","fire_station,point_of_interest,establishment",59,4.8,-6.127199,106.926699,"-6.127199,106.926699"
114,Pemadam Kebakaran Prov. DKI Jakarta,ChIJM-tOtFntaS4R6l8Xro8pZLA,"Jl. Komp. TMII Pintu 3, Lubang Buaya, Cipayung, Lubang Buaya, Kec. Cipayung, Kota Jakarta Timur, Daerah Khusus Ibukota Jakarta 13810, Indonesia","fire_station,point_of_interest,establishment",16,4.8,-6.2994175,106.8987587,"-6.2994175,106.8987587"
115,Pemerintah Kotamadya Jakarta Pusat Suku Dinas Pemadam Kebakaran Pos Karet,ChIJfSJTcKP2aS4Rwy-GoWRiuxA,"Jl. Penjernihan 1 No.29, RT.10/RW.6, Bend. Hilir, Kecamatan Tanah Abang, Kota Jakarta Pusat, Daerah Khusus Ibukota Jakarta 10210, Indonesia","fire_station,point_of_interest,establishment",11,3.9,-6.2016621,106.8084023,"-6.2016621,106.8084023"
116,Lebak Bulus Fire Station,ChIJ42YVv83xaS4RhkxBLCwLAWU,"Jl. Raya Pasar Jum'at, RT.10/RW.7, Pd. Pinang, Kec. Kby. Lama, Kota Jakarta Selatan, Daerah Khusus Ibukota Jakarta 12310, Indonesia","fire_station,point_of_interest,establishment",82,4.6,-6.2888991,106.7750208,"-6.2888991,106.7750208"
117,Dinas Pemadam Kebakaran Sektor Gropet 311-01,ChIJlafigDT2aS4Rl65DssaYnAw,"RQWF+W93, RT.10/RW.4, Wijaya Kusuma, Grogol petamburan, West Jakarta City, Jakarta 11460, Indonesia","fire_station,point_of_interest,establishment",9,5.0,-6.152751,106.7734024,"-6.152751,106.7734024"
118,Dinas Penanggulangan Kebakaran Dan Penyelamatan (Damkar Johar),ChIJw3zEC1H0aS4RFMidIk5Jcm8,"Jl. Percetakan Negara II, RT.12/RW.3, Johar Baru, Kec. Johar Baru, Kota Jakarta Pusat, Daerah Khusus Ibukota Jakarta 10560, Indonesia","fire_station,point_of_interest,establishment",140,4.9,-6.1820936,106.8563319,"-6.1820936,106.8563319"
119,Suku Dinas Pemadam Kebakaran,ChIJ9YooKDn0aS4R4ovBQD_Azo4,"Taman Ismail Marzuki Jl. Cikini Raya No.73, RT.1/RW.2, Cikini, Kec. Menteng, Kota Jakarta Pusat, Daerah Khusus Ibukota Jakarta 10330, Indonesia","fire_station,point_of_interest,establishment",11,4.5,-6.1907324,106.8384689,"-6.1907324,106.8384689"
120,Pos Pemadam kebakaran Casablanca,ChIJbZcJeozzaS4Rqbq-cMPo_RY,"Jalan Casablanca Raya No.33B, RT.3/RW.5, Menteng Dalam, Kec. Tebet, Kota Jakarta Selatan, Daerah Khusus Ibukota Jakarta 12960, Indonesia","fire_station,point_of_interest,establishment",11,3.7,-6.2219596,106.8450392,"-6.2219596,106.8450392"
121,"Kebayoran Baru Fire station, South Jakarta",ChIJnXUqVg3xaS4RSJSTye1VxU0,"Jl. Radio II No.4, RT.2/RW.4, Kramat Pela, Kec. Kby. Baru, Kota Jakarta Selatan, Daerah Khusus Ibukota Jakarta 12130, Indonesia","fire_station,point_of_interest,establishment",3,4.3,-6.2489658,106.7936533,"-6.2489658,106.7936533"
122,Pemadam Kebakaran Duri Pulo,ChIJ_RfFJ3L2aS4ROznlSWeVpok,"Jl. Imam Mahbud No.57, RT.2/RW.2, Duri Pulo, Kecamatan Gambir, Kota Jakarta Pusat, Daerah Khusus Ibukota Jakarta 10140, Indonesia","fire_station,point_of_interest,establishment",1,5.0,-6.161531699999999,106.8079064,"-6.1615317,106.8079064"
123,Pemadam kebakaran,ChIJtzimT7b1aS4R3WCIFSXgKRk,"No, Jl. Bungur Besar Raya No.20, RT.13/RW.1, Kel. Senen, Kec. Senen, Kota Jakarta Pusat, Daerah Khusus Ibukota Jakarta 10460, Indonesia","fire_station,point_of_interest,establishment",8,4.9,-6.1687338,106.8433395,"-6.1687338,106.8433395"
124,Kantor Pemadam Kebakaran,ChIJeYgqV_j1aS4RexgPbXZilkw,"Jl. Mangga Dua Dalam No.15, RT.8/RW.7, Mangga Dua Sel., Kecamatan Sawah Besar, Kota Jakarta Pusat, Daerah Khusus Ibukota Jakarta 10730, Indonesia","fire_station,point_of_interest,establishment",1,5.0,-6.137941,106.82652,"-6.137941,106.82652"
125,Suku Dinas Pemadam Kebakaran,ChIJhQg3dyf3aS4RQR3XxkxdH6M,"1, Jl. C No.3, RT.3/RW.1, Kb. Jeruk, Kec. Kb. Jeruk, Kota Jakarta Barat, Daerah Khusus Ibukota Jakarta 10350, Indonesia","fire_station,point_of_interest,establishment",7,4.3,-6.2004763,106.7682822,"-6.2004763,106.7682822"
126,Damkar Jakpus,ChIJ0_jaltX1aS4RhrbTdsrj8qk,"Jl. Tanah Abang I No.1, RW.8, Petojo Sel., Kecamatan Gambir, Kota Jakarta Pusat, Daerah Khusus Ibukota Jakarta 10640, Indonesia","fire_station,point_of_interest,establishment",6,4.3,-6.1731004,106.8190484,"-6.1731004,106.8190484"
127,Dinas Pemadam Kebakaran Mampang Prapatan,ChIJyxTWq93zaS4RRMyqsiljoyA,"Jl. Kapten Tendean No.1, RT.1/RW.2, Kuningan Bar., Kec. Mampang Prpt., Kota Jakarta Selatan, Daerah Khusus Ibukota Jakarta 12710, Indonesia","fire_station,point_of_interest,establishment",11,4.6,-6.2403372,106.8266926,"-6.2403372,106.8266926"
128,Dept. of Fire and Disaster Management,ChIJf-kbTfMdai4RyPW8qy9_QLQ,"VQ9V+VVH, Jl. Tanah Merah, RT.1/RW.16, Penjaringan, Kec. Penjaringan, Jkt Utara, Daerah Khusus Ibukota Jakarta 14440, Indonesia","fire_station,point_of_interest,establishment",2,5.0,-6.130262699999999,106.7947245,"-6.1302627,106.7947245"
129,Dinas Pemadam Kebakaran Kecamatan Pasar Minggu,ChIJt_iVmRPyaS4RTafqQ7PKf78,"Jl. Salihara No.2, RT.1/RW.1, Jati Padang, Ps. Minggu, Kota Jakarta Selatan, Daerah Khusus Ibukota Jakarta 12540, Indonesia","fire_station,point_of_interest,establishment",22,3.8,-6.2844029,106.8377027,"-6.2844029,106.8377027"
130,Dinas Pemadam Kebakaran Mangga Dua,ChIJbQ9XV_j1aS4R4997s9tZhRM,"Jl. Mangga Dua Dalam No.15, RT.1/RW.12, Mangga Dua Sel., Kecamatan Sawah Besar, Kota Jakarta Pusat, Daerah Khusus Ibukota Jakarta 10730, Indonesia","fire_station,point_of_interest,establishment",3,5.0,-6.1375433,106.8270892,"-6.1375433,106.8270892"
131,Pemadam Kebakaran Tanjung Duren,ChIJD4CkTln2aS4ReALd_Q7lXjk,"12, Jl. Tanjung Duren Raya No.1, RW.2, Tj. Duren Utara, Kec. Grogol petamburan, Daerah Khusus Ibukota Jakarta 11470, Indonesia","fire_station,point_of_interest,establishment",42,4.5,-6.1735298,106.7879343,"-6.1735298,106.7879343"
132,Pemadam Kebakaran Kecamatan Tebet,ChIJ_9eG8r7zaS4RVNWrNAGQi3A,"Jl. Prof. DR. Soepomo No.47, RT.10/RW.6, Tebet Bar., Kec. Tebet, Kota Jakarta Selatan, Daerah Khusus Ibukota Jakarta 12810, Indonesia","fire_station,point_of_interest,establishment",22,4.8,-6.2400519,106.8456267,"-6.2400519,106.8456267"
133,Dinas Pemadam Kebakaran,ChIJ2TAkieP0aS4RuX4Vdx84cHE,"RVCJ+67H, RT.8/RW.11, Kayu Putih, Pulo Gadung, East Jakarta City, Jakarta 13210, Indonesia","fire_station,point_of_interest,establishment",1,5.0,-6.1794367,106.8807322,"-6.1794367,106.8807322"
134,Pusdiklatkar Dinas Pemadam Kebakaran DKI Jakarta,ChIJEVtIgxDtaS4Rnaj24NgMq00,"6, Jl. Raya Ciracas No.113, Kec. Ciracas, Daerah Khusus Ibukota Jakarta 13740, Indonesia","fire_station,point_of_interest,establishment",204,4.8,-6.328544000000001,106.8797371,"-6.328544,106.8797371"
135,Dinas Pemadam Kebakaran,ChIJwxXNSt7waS4R7cfJw7QJF68,"Jl. Ciledug Raya, RT.7/RW.5, Cipulir, Kec. Kby. Lama, Kota Jakarta Selatan, Daerah Khusus Ibukota Jakarta 12230, Indonesia","fire_station,point_of_interest,establishment",7,4.7,-6.2382146,106.7676953,"-6.2382146,106.7676953"
136,SUDIN JAKARTA PUSAT,ChIJOe9UI-D3aS4Rq9PQqYRZ77k,"RRQ5+79G, RT.10/RW.10, Duri Pulo, Gambir, Central Jakarta City, Jakarta 10140, Indonesia","fire_station,point_of_interest,establishment",2,5.0,-6.1618102,106.808442,"-6.1618102,106.808442"
137,pemadam kebakaran pejaten barat,ChIJRVNHLkzzaS4Ra2MvnvZ0yS4,"PRCJ+F5P, RT.1/RW.7, West Pejaten, Pasar Minggu, South Jakarta City, Jakarta 12510, Indonesia","fire_station,point_of_interest,establishment",4,5.0,-6.2787595,106.830513,"-6.2787595,106.830513"
138,Pemadam Kebakaran,ChIJ2SW-aiCLaS4RE5YrcjrvZ-I,"Jalan Rw. 07. Kelurahan Cakung, Jl. Inspeksi Pol Ppd, RT.2/RW.7, Cakung Bar., Jakarta Timur, DKI Jakarta, Daerah Khusus Ibukota Jakarta 13910, Indonesia","fire_station,point_of_interest,establishment",7,4.0,-6.1738328,106.9337881,"-6.1738328,106.9337881"
139,PEMADAM KEBAKARAN SEKTOR TAMBORA,ChIJsU8qUfgdai4RFtnJS57M1vk,"Jl. Tiang Bendera I No.5, RW.3, Roa Malaka, Kec. Tambora, Kota Jakarta Barat, Daerah Khusus Ibukota Jakarta 11230, Indonesia","fire_station,point_of_interest,establishment",12,4.8,-6.132953,106.8081358,"-6.132953,106.8081358"
140,"Pos Pemadam Kebakaran, Tanah Abang",ChIJO2Md65z2aS4R7XqOlqBpAoI,"Ps. Tanah Abang, Jl. Kb. Jati No.214, RT.1/RW.9, Kb. Kacang, Kecamatan Tanah Abang, Kota Jakarta Pusat, Daerah Khusus Ibukota Jakarta 10240, Indonesia","fire_station,point_of_interest,establishment",2,4.0,-6.1890375,106.8130423,"-6.1890375,106.8130423"
141,Pemadam Kebakaran,ChIJiXod4dP2aS4Raxk4ZluS1RA,"Jl. Raya Kebayoran Lama No.3, RT.2/RW.1, Grogol Utara, Kec. Kby. Lama, Kota Jakarta Selatan, Daerah Khusus Ibukota Jakarta 11540, Indonesia","fire_station,point_of_interest,establishment",7,4.4,-6.2138195,106.777787,"-6.2138195,106.777787"
142,Sector Office Fire Kemayoran,ChIJ0xU9M731aS4R4Ud6fcTjC7I,"RRVV+R4X, Jl. Angkasa Pura, Kemayoran, RW.10, Gn. Sahari Sel., Kec. Kemayoran, Kota Jakarta Pusat, Daerah Khusus Ibukota Jakarta 10610, Indonesia","fire_station,point_of_interest,establishment",20,4.4,-6.1554082,106.8427742,"-6.1554082,106.8427742"
143,Sektor Pemadam Kebakaran & Penyelamatan,ChIJKR5Zs3_1aS4RI1NvTt66ws8,"Jl. Mangga Dua Raya Dalam No.15, RT.1/RW.12, Mangga Dua Sel., Kecamatan Sawah Besar, Kota Jakarta Pusat, Daerah Khusus Ibukota Jakarta 10730, Indonesia","fire_station,point_of_interest,establishment",2,5.0,-6.1375614,106.8271202,"-6.1375614,106.8271202"
144,Pemadam Kebakaran Menteng,ChIJnTcdXyD1aS4RtWAWTIf9nBs,"Jl. Cikini Raya No.16, RW.2, Cikini, Kec. Menteng, Kota Jakarta Pusat, Daerah Khusus Ibukota Jakarta 10330, Indonesia","fire_station,point_of_interest,establishment",1,5.0,-6.1906288,106.8392384,"-6.1906288,106.8392384"
145,Posko Dinas Pemadam Kebakaran,ChIJg0veQeTyaS4Rrmmu6EDlZuQ,"Jl. Kamboja VII No.36, RT.10/RW.1, Kb. Pala, Kec. Makasar, Kota Jakarta Timur, Daerah Khusus Ibukota Jakarta 13650, Indonesia","fire_station,point_of_interest,establishment",6,5.0,-6.2627001,106.8809991,"-6.2627001,106.8809991"
146,Pemadam Kebakaran Jakarta Utara,ChIJSarDc-sfai4RtrngS1ta8RM,"no, Jl. Yos Sudarso No.1, RT.2/RW.12, Rawabadak Utara, Kec. Koja, Jkt Utara, Daerah Khusus Ibukota Jakarta 14320, Indonesia","fire_station,point_of_interest,establishment",1,5.0,-6.1150651,106.8934496,"-6.1150651,106.8934496"
147,Dinas Kebakaran Jakarta,ChIJrWev73LyaS4RUgLSp4-tYrc,"PR5V+X9X, Jl. Raya Tj. Barat, RT.9/RW.7, Ps. Minggu, Kota Jakarta Selatan, Daerah Khusus Ibukota Jakarta 12530, Indonesia","fire_station,point_of_interest,establishment",0,0.0,-6.2900092,106.8434722,"-6.2900092,106.8434722"
148,Pemadam Kebakaran Kramat Djati Jakarta Timur,ChIJ--7YdevzaS4Ro3AaSHxIqHQ,"Jl. Kerja Bakti II No.2, RT.2/RW.4, Kramat Jati, Kec. Kramat jati, Kota Jakarta Timur, Daerah Khusus Ibukota Jakarta 13570, Indonesia","fire_station,point_of_interest,establishment",3,5.0,-6.277487199999999,106.8714197,"-6.2774872,106.8714197"
149,Pesanggrahan Bintaro Fire Station,ChIJ3TauDffwaS4R_4nQGDgzEoM,"Jl. Cenek No.45, RT.5/RW.3, Pesanggrahan, Kec. Pesanggrahan, Kota Jakarta Selatan, Daerah Khusus Ibukota Jakarta 12320, Indonesia","fire_station,point_of_interest,establishment",14,4.4,-6.257298899999999,106.7571538,"-6.2572989,106.7571538"
150,Kantor Pemadam Kebakaran Petamburan,ChIJP1CaqzT3aS4RHURNjmC5Z2s,"Jl. K.S. Tubun No.71-73, RT.2/RW.3, Petamburan, Kecamatan Tanah Abang, Kota Jakarta Pusat, Daerah Khusus Ibukota Jakarta 11410, Indonesia","fire_station,point_of_interest,establishment",2,5.0,-6.1939779,106.8055035,"-6.1939779,106.8055035"
151,Pemadam Kebakaran Rasuna Epicentrum,ChIJ37MmsfXzaS4Ratm7N6gN6k4,"QRJP+CX5, RT.17/RW.1, Menteng Atas, Setiabudi, South Jakarta City, Jakarta 12960, Indonesia","fire_station,point_of_interest,establishment",2,5.0,-6.2189726,106.8374674,"-6.2189726,106.8374674"
152,Suku Dinas Jakarta Utara Pos Kelapa Gading,ChIJXamPijb1aS4R7W8gxSuzuDg,"Jl. Raya Pelepah Indah No.18, RT.9/RW.18, Klp. Gading Tim., Kec. Klp. Gading, Jkt Utara, Daerah Khusus Ibukota Jakarta 14240, Indonesia","fire_station,point_of_interest,establishment",4,4.0,-6.156003,106.9050223,"-6.156003,106.9050223"
153,Kantor Sektor 1 Pemadam Kebakaran,ChIJMc2XgTT2aS4RU8n5gRoBTYA,"Jl. Perdana No.10, RT.10/RW.4, Wijaya Kusuma, Kec. Grogol petamburan, Kota Jakarta Barat, Daerah Khusus Ibukota Jakarta 11460, Indonesia","fire_station,point_of_interest,establishment",6,4.5,-6.1527204,106.7734847,"-6.1527204,106.7734847"
154,"POS Pemadam Kebakaran Ciganjur, Jakarta Selatan",ChIJE2Z8y4vuaS4Reo1onzJQQU0,"1, RT.2/RW.1, Ciganjur, Kec. Jagakarsa, Kota Jakarta Selatan, Daerah Khusus Ibukota Jakarta 16514, Indonesia","fire_station,point_of_interest,establishment",11,4.6,-6.3448172,106.7987901,"-6.3448172,106.7987901"
155,Pemadam Kebakaran Batu Ampar,ChIJ3WuoPV7yaS4RlX2xlXsPn2Y,"Jalan Batu Ampar III No.19, RT.12/RW.2, Batu Ampar, Kramatjati, RT.12/RW.2, Batu Ampar, Kec. Kramat jati, Kota Jakarta Timur, Daerah Khusus Ibukota Jakarta 13520, Indonesia","fire_station,point_of_interest,establishment",12,4.2,-6.276579799999999,106.8607885,"-6.2765798,106.8607885"
156,Kantor Pemadam Kebakaran Duren Sawit,ChIJoWZ2WdqMaS4RQJsmEaxu4Wk,"QW3G+2CP, Jl. Klp. Sawit Raya, RT.4/RW.10, Pd. Klp., Kec. Duren Sawit, Kota Jakarta Timur, Daerah Khusus Ibukota Jakarta 13450, Indonesia","fire_station,point_of_interest,establishment",4,4.0,-6.247421,106.9260551,"-6.247421,106.9260551"
157,Pemadam Kebakaraan Kebun Jeruk Baru,ChIJF5yw8OL2aS4RdMbElCk1zR8,"Blok C. 2, Jl. Perumahan Kb. Jeruk Baru Blok C. 2 No.1, RT.8/RW.8, Kb. Jeruk, Kec. Kb. Jeruk, Kota Jakarta Barat, Daerah Khusus Ibukota Jakarta 11530, Indonesia","fire_station,point_of_interest,establishment",4,5.0,-6.1901329,106.7726649,"-6.1901329,106.7726649"
158,Kantor Pemadam Kebakaran Dan Penyelamatan Cempaka Putih,ChIJH7vJJiz1aS4RxnOMnsgpsGo,"RT.16/RW.2, Cempaka Putih Timur, Cempaka Putih, RT.16/RW.2, Cemp. Putih Tim., Kec. Cemp. Putih, Kota Jakarta Pusat, Daerah Khusus Ibukota Jakarta 10510, Indonesia","fire_station,point_of_interest,establishment",0,0.0,-6.1851838,106.8738557,"-6.1851838,106.8738557"
159,Pos Pemadam Kebakaran Pluit,ChIJ0YSSyJcdai4RAbYT37ndos8,"Jl. Pluit Barat Raya No.800, RW.7, Pluit, Kec. Penjaringan, Jkt Utara, Daerah Khusus Ibukota Jakarta 14450, Indonesia","fire_station,point_of_interest,establishment",2,5.0,-6.1174994,106.784716,"-6.1174994,106.784716"
160,Damkar PB Pemadam Kebakaran,ChIJAbDQvQD1aS4RgcJWaIp1ykw,"Ruko Cemp. Putih Permai, Jl. Letjen Suprapto, RT.12/RW.5, Cemp. Putih Tim., Kec. Cemp. Putih, DKI Jakarta, Daerah Khusus Ibukota Jakarta 10520, Indonesia","fire_station,point_of_interest,establishment",0,0.0,-6.171125,106.86612,"-6.171125,106.86612"
161,Pos Pemadam Senen,ChIJvdUwn2H1aS4RBezBb5Iy13k,"RRGV+X9J, Jln. Stasiun, RW.3, Senen, Kec. Senen, Kota Jakarta Pusat, Daerah Khusus Ibukota Jakarta 10410, Indonesia","fire_station,point_of_interest,establishment",3,5.0,-6.172528100000001,106.8433959,"-6.1725281,106.8433959"
162,Pemadam Kebakaran,ChIJIb67MKYdai4RLndSX0UhKVE,"Jl. Pendaratan Ikan No.3, RT.13/RW.11, Pluit, Kec. Penjaringan, Jkt Utara, Daerah Khusus Ibukota Jakarta 14450, Indonesia","fire_station,point_of_interest,establishment",23,4.5,-6.108399299999999,106.7736033,"-6.1083993,106.7736033"
163,Pos Pemadam Kebakaran Petamburan,ChIJCR13f3T3aS4RUNYEpsxx1_Y,"Jl. K.S. Tubun Jl. Pejompongan Raya No.69, RT.2/RW.3, Petamburan, Kecamatan Tanah Abang, Kota Jakarta Pusat, Daerah Khusus Ibukota Jakarta 11410, Indonesia","fire_station,point_of_interest,establishment",2,5.0,-6.1938078,106.8055053,"-6.1938078,106.8055053"
164,Kantor Sektor Pemadam Kebakaran Kelapa Gading,ChIJ7XHwRtb0aS4R5uEHe2GLrLk,"Jl. Komp. PLN No.6, RT.6/RW.14, Klp. Gading Tim., Kec. Klp. Gading, Jkt Utara, Daerah Khusus Ibukota Jakarta 14240, Indonesia","fire_station,point_of_interest,establishment",10,4.5,-6.175989299999999,106.9044475,"-6.1759893,106.9044475"
165,Dinas Pemadam Kebakaran Slipi,ChIJgYmDl5f2aS4RTyLOTXMc7Jw,"Jl. Slipi III No.10, RT.12/RW.6, Slipi, Kec. Palmerah, Kota Jakarta Barat, Daerah Khusus Ibukota Jakarta 11410, Indonesia","fire_station,point_of_interest,establishment",1,5.0,-6.195624899999999,106.8047261,"-6.1956249,106.8047261"
166,sudin damkar Jakarta timur,ChIJ4UjQDEH1aS4RprdWQFWzkEk,"Jl. Pemuda No.11, RT.11/RW.14, Rawamangun, Kec. Pulo Gadung, Kota Jakarta Timur, Daerah Khusus Ibukota Jakarta 13220, Indonesia","fire_station,point_of_interest,establishment",16,4.8,-6.1927902,106.8758884,"-6.1927902,106.8758884"
167,Markas Pemadam Kebakaran,ChIJGVWeWDX1aS4R4ZekaOhVlug,"RV4P+RRF, RT.8/RW.5, Rawamangun, Pulo Gadung, East Jakarta City, Jakarta 13220, Indonesia","fire_station,point_of_interest,establishment",2,5.0,-6.1929488,106.8870598,"-6.1929488,106.8870598"
168,Casablanca Fire Station,ChIJKwwYW4vzaS4RyR_fs1wnkjU,"Jl. Menteng Pulo No.1, RT.3/RW.9, Menteng Atas, Kecamatan Setiabudi, Kota Jakarta Selatan, Daerah Khusus Ibukota Jakarta 12960, Indonesia","fire_station,point_of_interest,establishment",1,5.0,-6.2218596,106.845043,"-6.2218596,106.845043"
169,Pesanggrahan Ciledug Fire Station,ChIJ9a4JR_7xaS4Ry75wiRHQW10,"Jl. Ciledug Raya No.2, RT.4/RW.3, Petukangan Utara, Kec. Pesanggrahan, Kota Jakarta Selatan, Daerah Khusus Ibukota Jakarta 12270, Indonesia","fire_station,point_of_interest,establishment",11,5.0,-6.236769,106.7577621,"-6.236769,106.7577621"
170,"Cipete Fire Station, South Jakarta",ChIJxZw3EJDxaS4Raj0NJzPKRGc,"Jalan Raya Melati No.11, RT.11/RW.2, Cipete Sel., Kec. Cilandak, Kota Jakarta Selatan, Daerah Khusus Ibukota Jakarta 12410, Indonesia","fire_station,point_of_interest,establishment",12,4.7,-6.269723399999999,106.805165,"-6.2697234,106.805165"
171,Kantor Pemadam Jatinegara,ChIJYR7eUXDzaS4RccOTqc1PNLI,"Jl. Panti Asuhan No.8, RT.11/RW.1, Cipinang Cempedak, Kecamatan Jatinegara, Kota Jakarta Timur, Daerah Khusus Ibukota Jakarta 13340, Indonesia","fire_station,point_of_interest,establishment",1,5.0,-6.2279505,106.8746082,"-6.2279505,106.8746082"
172,Jakarta Fire and Rescue Agency,ChIJkQLh1HP2aS4RI1EBxQUgL3c,"Jl. Kyai Haji Zainul Arifin No.71, RT.10/RW.10, Duri Pulo, Kecamatan Gambir, Kota Jakarta Pusat, Daerah Khusus Ibukota Jakarta 10140, Indonesia","fire_station,point_of_interest,establishment",111,4.6,-6.1618546,106.8084323,"-6.1618546,106.8084323"
173,Pemadam Kebakaran Prov. DKI Jakarta,ChIJM-tOtFntaS4R6l8Xro8pZLA,"Jl. Komp. TMII Pintu 3, Lubang Buaya, Cipayung, Lubang Buaya, Kec. Cipayung, Kota Jakarta Timur, Daerah Khusus Ibukota Jakarta 13810, Indonesia","fire_station,point_of_interest,establishment",16,4.8,-6.2994175,106.8987587,"-6.2994175,106.8987587"
174,Kantor Pemadam Kebakaran Jakarta Utara,ChIJAawJ1Q4gai4RyZvQqwyqrrU,"Jl. Komp. Pemadam Kebakaran No.113, RT.11/RW.6, Semper Bar., Kec. Cilincing, Jkt Utara, Daerah Khusus Ibukota Jakarta 14130, Indonesia","fire_station,point_of_interest,establishment",59,4.8,-6.127199,106.926699,"-6.127199,106.926699"
175,Pemerintah Kotamadya Jakarta Pusat Suku Dinas Pemadam Kebakaran Pos Karet,ChIJfSJTcKP2aS4Rwy-GoWRiuxA,"Jl. Penjernihan 1 No.29, RT.10/RW.6, Bend. Hilir, Kecamatan Tanah Abang, Kota Jakarta Pusat, Daerah Khusus Ibukota Jakarta 10210, Indonesia","fire_station,point_of_interest,establishment",11,3.9,-6.2016621,106.8084023,"-6.2016621,106.8084023"
176,"Kebayoran Baru Fire station, South Jakarta",ChIJnXUqVg3xaS4RSJSTye1VxU0,"Jl. Radio II No.4, RT.2/RW.4, Kramat Pela, Kec. Kby. Baru, Kota Jakarta Selatan, Daerah Khusus Ibukota Jakarta 12130, Indonesia","fire_station,point_of_interest,establishment",3,4.3,-6.2489658,106.7936533,"-6.2489658,106.7936533"
177,Damkar Jakpus,ChIJ0_jaltX1aS4RhrbTdsrj8qk,"Jl. Tanah Abang I No.1, RW.8, Petojo Sel., Kecamatan Gambir, Kota Jakarta Pusat, Daerah Khusus Ibukota Jakarta 10640, Indonesia","fire_station,point_of_interest,establishment",6,4.3,-6.1731004,106.8190484,"-6.1731004,106.8190484"
178,Pos Pemadam kebakaran Casablanca,ChIJbZcJeozzaS4Rqbq-cMPo_RY,"Jalan Casablanca Raya No.33B, RT.3/RW.5, Menteng Dalam, Kec. Tebet, Kota Jakarta Selatan, Daerah Khusus Ibukota Jakarta 12960, Indonesia","fire_station,point_of_interest,establishment",11,3.7,-6.2219596,106.8450392,"-6.2219596,106.8450392"
179,Pemadam Kebakaran Duri Pulo,ChIJ_RfFJ3L2aS4ROznlSWeVpok,"Jl. Imam Mahbud No.57, RT.2/RW.2, Duri Pulo, Kecamatan Gambir, Kota Jakarta Pusat, Daerah Khusus Ibukota Jakarta 10140, Indonesia","fire_station,point_of_interest,establishment",1,5.0,-6.161531699999999,106.8079064,"-6.1615317,106.8079064"
180,Dinas Penanggulangan Kebakaran Dan Penyelamatan (Damkar Johar),ChIJw3zEC1H0aS4RFMidIk5Jcm8,"Jl. Percetakan Negara II, RT.12/RW.3, Johar Baru, Kec. Johar Baru, Kota Jakarta Pusat, Daerah Khusus Ibukota Jakarta 10560, Indonesia","fire_station,point_of_interest,establishment",140,4.9,-6.1820936,106.8563319,"-6.1820936,106.8563319"
181,Suku Dinas Pemadam Kebakaran,ChIJ9YooKDn0aS4R4ovBQD_Azo4,"Taman Ismail Marzuki Jl. Cikini Raya No.73, RT.1/RW.2, Cikini, Kec. Menteng, Kota Jakarta Pusat, Daerah Khusus Ibukota Jakarta 10330, Indonesia","fire_station,point_of_interest,establishment",11,4.5,-6.1907324,106.8384689,"-6.1907324,106.8384689"
182,Dinas Pemadam Kebakaran Kecamatan Pasar Minggu,ChIJt_iVmRPyaS4RTafqQ7PKf78,"Jl. Salihara No.2, RT.1/RW.1, Jati Padang, Ps. Minggu, Kota Jakarta Selatan, Daerah Khusus Ibukota Jakarta 12540, Indonesia","fire_station,point_of_interest,establishment",22,3.8,-6.2844029,106.8377027,"-6.2844029,106.8377027"
183,Posko Dinas Pemadam Kebakaran,ChIJg0veQeTyaS4Rrmmu6EDlZuQ,"Jl. Kamboja VII No.36, RT.10/RW.1, Kb. Pala, Kec. Makasar, Kota Jakarta Timur, Daerah Khusus Ibukota Jakarta 13650, Indonesia","fire_station,point_of_interest,establishment",6,5.0,-6.2627001,106.8809991,"-6.2627001,106.8809991"
184,Dinas Pemadam Kebakaran,ChIJ2TAkieP0aS4RuX4Vdx84cHE,"RVCJ+67H, RT.8/RW.11, Kayu Putih, Pulo Gadung, East Jakarta City, Jakarta 13210, Indonesia","fire_station,point_of_interest,establishment",1,5.0,-6.1794367,106.8807322,"-6.1794367,106.8807322"
185,Pemadam Kebakaran Jakarta Utara,ChIJSarDc-sfai4RtrngS1ta8RM,"no, Jl. Yos Sudarso No.1, RT.2/RW.12, Rawabadak Utara, Kec. Koja, Jkt Utara, Daerah Khusus Ibukota Jakarta 14320, Indonesia","fire_station,point_of_interest,establishment",1,5.0,-6.1150651,106.8934496,"-6.1150651,106.8934496"
186,PEMADAM KEBAKARAN SEKTOR TAMBORA,ChIJsU8qUfgdai4RFtnJS57M1vk,"Jl. Tiang Bendera I No.5, RW.3, Roa Malaka, Kec. Tambora, Kota Jakarta Barat, Daerah Khusus Ibukota Jakarta 11230, Indonesia","fire_station,point_of_interest,establishment",12,4.8,-6.132953,106.8081358,"-6.132953,106.8081358"
187,Dinas Pemadam Kebakaran Mampang Prapatan,ChIJyxTWq93zaS4RRMyqsiljoyA,"Jl. Kapten Tendean No.1, RT.1/RW.2, Kuningan Bar., Kec. Mampang Prpt., Kota Jakarta Selatan, Daerah Khusus Ibukota Jakarta 12710, Indonesia","fire_station,point_of_interest,establishment",11,4.6,-6.2403372,106.8266926,"-6.2403372,106.8266926"
188,Dinas Pemadam Kebakaran Sektor Gropet 311-01,ChIJlafigDT2aS4Rl65DssaYnAw,"RQWF+W93, RT.10/RW.4, Wijaya Kusuma, Grogol petamburan, West Jakarta City, Jakarta 11460, Indonesia","fire_station,point_of_interest,establishment",9,5.0,-6.152751,106.7734024,"-6.152751,106.7734024"
189,Lebak Bulus Fire Station,ChIJ42YVv83xaS4RhkxBLCwLAWU,"Jl. Raya Pasar Jum'at, RT.10/RW.7, Pd. Pinang, Kec. Kby. Lama, Kota Jakarta Selatan, Daerah Khusus Ibukota Jakarta 12310, Indonesia","fire_station,point_of_interest,establishment",82,4.6,-6.2888991,106.7750208,"-6.2888991,106.7750208"
190,Office Sector V Cempaka Putih,ChIJI42uePr0aS4R8hfGoiVGfTQ,"Komplek Rawa Kebo, Jl. Rawasari Selatan RT.16/RW.2, Cempaka Putih Timur, Cempaka Putih, RT.16/RW.2, Cemp. Putih Tim., Kec. Cemp. Putih, Kota Jakarta Pusat, Daerah Khusus Ibukota Jakarta 10510, Indonesia","fire_station,point_of_interest,establishment",15,4.6,-6.185167700000001,106.8738765,"-6.1851677,106.8738765"
191,Pemadam Kebakaran Rasuna Epicentrum,ChIJ37MmsfXzaS4Ratm7N6gN6k4,"QRJP+CX5, RT.17/RW.1, Menteng Atas, Setiabudi, South Jakarta City, Jakarta 12960, Indonesia","fire_station,point_of_interest,establishment",2,5.0,-6.2189726,106.8374674,"-6.2189726,106.8374674"
192,Pemadam kebakaran,ChIJtzimT7b1aS4R3WCIFSXgKRk,"No, Jl. Bungur Besar Raya No.20, RT.13/RW.1, Kel. Senen, Kec. Senen, Kota Jakarta Pusat, Daerah Khusus Ibukota Jakarta 10460, Indonesia","fire_station,point_of_interest,establishment",8,4.9,-6.1687338,106.8433395,"-6.1687338,106.8433395"
193,Kantor Pemadam Kebakaran,ChIJeYgqV_j1aS4RexgPbXZilkw,"Jl. Mangga Dua Dalam No.15, RT.8/RW.7, Mangga Dua Sel., Kecamatan Sawah Besar, Kota Jakarta Pusat, Daerah Khusus Ibukota Jakarta 10730, Indonesia","fire_station,point_of_interest,establishment",1,5.0,-6.137941,106.82652,"-6.137941,106.82652"
194,Suku Dinas Pemadam Kebakaran,ChIJhQg3dyf3aS4RQR3XxkxdH6M,"1, Jl. C No.3, RT.3/RW.1, Kb. Jeruk, Kec. Kb. Jeruk, Kota Jakarta Barat, Daerah Khusus Ibukota Jakarta 10350, Indonesia","fire_station,point_of_interest,establishment",7,4.3,-6.2004763,106.7682822,"-6.2004763,106.7682822"
195,Dept. of Fire and Disaster Management,ChIJf-kbTfMdai4RyPW8qy9_QLQ,"VQ9V+VVH, Jl. Tanah Merah, RT.1/RW.16, Penjaringan, Kec. Penjaringan, Jkt Utara, Daerah Khusus Ibukota Jakarta 14440, Indonesia","fire_station,point_of_interest,establishment",2,5.0,-6.130262699999999,106.7947245,"-6.1302627,106.7947245"
196,Dinas Pemadam Kebakaran Mangga Dua,ChIJbQ9XV_j1aS4R4997s9tZhRM,"Jl. Mangga Dua Dalam No.15, RT.1/RW.12, Mangga Dua Sel., Kecamatan Sawah Besar, Kota Jakarta Pusat, Daerah Khusus Ibukota Jakarta 10730, Indonesia","fire_station,point_of_interest,establishment",3,5.0,-6.1375433,106.8270892,"-6.1375433,106.8270892"
197,Pemadam Kebakaran Tanjung Duren,ChIJD4CkTln2aS4ReALd_Q7lXjk,"12, Jl. Tanjung Duren Raya No.1, RW.2, Tj. Duren Utara, Kec. Grogol petamburan, Daerah Khusus Ibukota Jakarta 11470, Indonesia","fire_station,point_of_interest,establishment",42,4.5,-6.1735298,106.7879343,"-6.1735298,106.7879343"
198,Pemadam Kebakaran Kecamatan Tebet,ChIJ_9eG8r7zaS4RVNWrNAGQi3A,"Jl. Prof. DR. Soepomo No.47, RT.10/RW.6, Tebet Bar., Kec. Tebet, Kota Jakarta Selatan, Daerah Khusus Ibukota Jakarta 12810, Indonesia","fire_station,point_of_interest,establishment",22,4.8,-6.2400519,106.8456267,"-6.2400519,106.8456267"
199,Pusdiklatkar Dinas Pemadam Kebakaran DKI Jakarta,ChIJEVtIgxDtaS4Rnaj24NgMq00,"6, Jl. Raya Ciracas No.113, Kec. Ciracas, Daerah Khusus Ibukota Jakarta 13740, Indonesia","fire_station,point_of_interest,establishment",204,4.8,-6.328544000000001,106.8797371,"-6.328544,106.8797371"
200,Dinas Pemadam Kebakaran,ChIJwxXNSt7waS4R7cfJw7QJF68,"Jl. Ciledug Raya, RT.7/RW.5, Cipulir, Kec. Kby. Lama, Kota Jakarta Selatan, Daerah Khusus Ibukota Jakarta 12230, Indonesia","fire_station,point_of_interest,establishment",7,4.7,-6.2382146,106.7676953,"-6.2382146,106.7676953"
201,SUDIN JAKARTA PUSAT,ChIJOe9UI-D3aS4Rq9PQqYRZ77k,"RRQ5+79G, RT.10/RW.10, Duri Pulo, Gambir, Central Jakarta City, Jakarta 10140, Indonesia","fire_station,point_of_interest,establishment",2,5.0,-6.1618102,106.808442,"-6.1618102,106.808442"
202,pemadam kebakaran pejaten barat,ChIJRVNHLkzzaS4Ra2MvnvZ0yS4,"PRCJ+F5P, RT.1/RW.7, West Pejaten, Pasar Minggu, South Jakarta City, Jakarta 12510, Indonesia","fire_station,point_of_interest,establishment",4,5.0,-6.2787595,106.830513,"-6.2787595,106.830513"
203,Pemadam Kebakaran,ChIJ2SW-aiCLaS4RE5YrcjrvZ-I,"Jalan Rw. 07. Kelurahan Cakung, Jl. Inspeksi Pol Ppd, RT.2/RW.7, Cakung Bar., Jakarta Timur, DKI Jakarta, Daerah Khusus Ibukota Jakarta 13910, Indonesia","fire_station,point_of_interest,establishment",7,4.0,-6.1738328,106.9337881,"-6.1738328,106.9337881"
204,"Pos Pemadam Kebakaran, Tanah Abang",ChIJO2Md65z2aS4R7XqOlqBpAoI,"Ps. Tanah Abang, Jl. Kb. Jati No.214, RT.1/RW.9, Kb. Kacang, Kecamatan Tanah Abang, Kota Jakarta Pusat, Daerah Khusus Ibukota Jakarta 10240, Indonesia","fire_station,point_of_interest,establishment",2,4.0,-6.1890375,106.8130423,"-6.1890375,106.8130423"
205,Pemadam Kebakaran,ChIJiXod4dP2aS4Raxk4ZluS1RA,"Jl. Raya Kebayoran Lama No.3, RT.2/RW.1, Grogol Utara, Kec. Kby. Lama, Kota Jakarta Selatan, Daerah Khusus Ibukota Jakarta 11540, Indonesia","fire_station,point_of_interest,establishment",7,4.4,-6.2138195,106.777787,"-6.2138195,106.777787"
206,Sector Office Fire Kemayoran,ChIJ0xU9M731aS4R4Ud6fcTjC7I,"RRVV+R4X, Jl. Angkasa Pura, Kemayoran, RW.10, Gn. Sahari Sel., Kec. Kemayoran, Kota Jakarta Pusat, Daerah Khusus Ibukota Jakarta 10610, Indonesia","fire_station,point_of_interest,establishment",20,4.4,-6.1554082,106.8427742,"-6.1554082,106.8427742"
207,Sektor Pemadam Kebakaran & Penyelamatan,ChIJKR5Zs3_1aS4RI1NvTt66ws8,"Jl. Mangga Dua Raya Dalam No.15, RT.1/RW.12, Mangga Dua Sel., Kecamatan Sawah Besar, Kota Jakarta Pusat, Daerah Khusus Ibukota Jakarta 10730, Indonesia","fire_station,point_of_interest,establishment",2,5.0,-6.1375614,106.8271202,"-6.1375614,106.8271202"
208,Pemadam Kebakaran Menteng,ChIJnTcdXyD1aS4RtWAWTIf9nBs,"Jl. Cikini Raya No.16, RW.2, Cikini, Kec. Menteng, Kota Jakarta Pusat, Daerah Khusus Ibukota Jakarta 10330, Indonesia","fire_station,point_of_interest,establishment",1,5.0,-6.1906288,106.8392384,"-6.1906288,106.8392384"
209,Dinas Kebakaran Jakarta,ChIJrWev73LyaS4RUgLSp4-tYrc,"PR5V+X9X, Jl. Raya Tj. Barat, RT.9/RW.7, Ps. Minggu, Kota Jakarta Selatan, Daerah Khusus Ibukota Jakarta 12530, Indonesia","fire_station,point_of_interest,establishment",0,0.0,-6.2900092,106.8434722,"-6.2900092,106.8434722"
210,Pemadam Kebakaran Kramat Djati Jakarta Timur,ChIJ--7YdevzaS4Ro3AaSHxIqHQ,"Jl. Kerja Bakti II No.2, RT.2/RW.4, Kramat Jati, Kec. Kramat jati, Kota Jakarta Timur, Daerah Khusus Ibukota Jakarta 13570, Indonesia","fire_station,point_of_interest,establishment",3,5.0,-6.277487199999999,106.8714197,"-6.2774872,106.8714197"
211,Pesanggrahan Bintaro Fire Station,ChIJ3TauDffwaS4R_4nQGDgzEoM,"Jl. Cenek No.45, RT.5/RW.3, Pesanggrahan, Kec. Pesanggrahan, Kota Jakarta Selatan, Daerah Khusus Ibukota Jakarta 12320, Indonesia","fire_station,point_of_interest,establishment",14,4.4,-6.257298899999999,106.7571538,"-6.2572989,106.7571538"
212,Kantor Pemadam Kebakaran Petamburan,ChIJP1CaqzT3aS4RHURNjmC5Z2s,"Jl. K.S. Tubun No.71-73, RT.2/RW.3, Petamburan, Kecamatan Tanah Abang, Kota Jakarta Pusat, Daerah Khusus Ibukota Jakarta 11410, Indonesia","fire_station,point_of_interest,establishment",2,5.0,-6.1939779,106.8055035,"-6.1939779,106.8055035"
213,Suku Dinas Jakarta Utara Pos Kelapa Gading,ChIJXamPijb1aS4R7W8gxSuzuDg,"Jl. Raya Pelepah Indah No.18, RT.9/RW.18, Klp. Gading Tim., Kec. Klp. Gading, Jkt Utara, Daerah Khusus Ibukota Jakarta 14240, Indonesia","fire_station,point_of_interest,establishment",4,4.0,-6.156003,106.9050223,"-6.156003,106.9050223"
214,Kantor Sektor 1 Pemadam Kebakaran,ChIJMc2XgTT2aS4RU8n5gRoBTYA,"Jl. Perdana No.10, RT.10/RW.4, Wijaya Kusuma, Kec. Grogol petamburan, Kota Jakarta Barat, Daerah Khusus Ibukota Jakarta 11460, Indonesia","fire_station,point_of_interest,establishment",6,4.5,-6.1527204,106.7734847,"-6.1527204,106.7734847"
215,"POS Pemadam Kebakaran Ciganjur, Jakarta Selatan",ChIJE2Z8y4vuaS4Reo1onzJQQU0,"1, RT.2/RW.1, Ciganjur, Kec. Jagakarsa, Kota Jakarta Selatan, Daerah Khusus Ibukota Jakarta 16514, Indonesia","fire_station,point_of_interest,establishment",11,4.6,-6.3448172,106.7987901,"-6.3448172,106.7987901"
216,Pemadam Kebakaran Batu Ampar,ChIJ3WuoPV7yaS4RlX2xlXsPn2Y,"Jalan Batu Ampar III No.19, RT.12/RW.2, Batu Ampar, Kramatjati, RT.12/RW.2, Batu Ampar, Kec. Kramat jati, Kota Jakarta Timur, Daerah Khusus Ibukota Jakarta 13520, Indonesia","fire_station,point_of_interest,establishment",12,4.2,-6.276579799999999,106.8607885,"-6.2765798,106.8607885"
217,Kantor Pemadam Kebakaran Duren Sawit,ChIJoWZ2WdqMaS4RQJsmEaxu4Wk,"QW3G+2CP, Jl. Klp. Sawit Raya, RT.4/RW.10, Pd. Klp., Kec. Duren Sawit, Kota Jakarta Timur, Daerah Khusus Ibukota Jakarta 13450, Indonesia","fire_station,point_of_interest,establishment",4,4.0,-6.247421,106.9260551,"-6.247421,106.9260551"
218,Pemadam Kebakaraan Kebun Jeruk Baru,ChIJF5yw8OL2aS4RdMbElCk1zR8,"Blok C. 2, Jl. Perumahan Kb. Jeruk Baru Blok C. 2 No.1, RT.8/RW.8, Kb. Jeruk, Kec. Kb. Jeruk, Kota Jakarta Barat, Daerah Khusus Ibukota Jakarta 11530, Indonesia","fire_station,point_of_interest,establishment",4,5.0,-6.1901329,106.7726649,"-6.1901329,106.7726649"
219,Kantor Pemadam Kebakaran Dan Penyelamatan Cempaka Putih,ChIJH7vJJiz1aS4RxnOMnsgpsGo,"RT.16/RW.2, Cempaka Putih Timur, Cempaka Putih, RT.16/RW.2, Cemp. Putih Tim., Kec. Cemp. Putih, Kota Jakarta Pusat, Daerah Khusus Ibukota Jakarta 10510, Indonesia","fire_station,point_of_interest,establishment",0,0.0,-6.1851838,106.8738557,"-6.1851838,106.8738557"
220,Pos Pemadam Kebakaran Pluit,ChIJ0YSSyJcdai4RAbYT37ndos8,"Jl. Pluit Barat Raya No.800, RW.7, Pluit, Kec. Penjaringan, Jkt Utara, Daerah Khusus Ibukota Jakarta 14450, Indonesia","fire_station,point_of_interest,establishment",2,5.0,-6.1174994,106.784716,"-6.1174994,106.784716"
221,Damkar PB Pemadam Kebakaran,ChIJAbDQvQD1aS4RgcJWaIp1ykw,"Ruko Cemp. Putih Permai, Jl. Letjen Suprapto, RT.12/RW.5, Cemp. Putih Tim., Kec. Cemp. Putih, DKI Jakarta, Daerah Khusus Ibukota Jakarta 10520, Indonesia","fire_station,point_of_interest,establishment",0,0.0,-6.171125,106.86612,"-6.171125,106.86612"
222,Pos Pemadam Senen,ChIJvdUwn2H1aS4RBezBb5Iy13k,"RRGV+X9J, Jln. Stasiun, RW.3, Senen, Kec. Senen, Kota Jakarta Pusat, Daerah Khusus Ibukota Jakarta 10410, Indonesia","fire_station,point_of_interest,establishment",3,5.0,-6.172528100000001,106.8433959,"-6.1725281,106.8433959"
223,Pemadam Kebakaran,ChIJIb67MKYdai4RLndSX0UhKVE,"Jl. Pendaratan Ikan No.3, RT.13/RW.11, Pluit, Kec. Penjaringan, Jkt Utara, Daerah Khusus Ibukota Jakarta 14450, Indonesia","fire_station,point_of_interest,establishment",23,4.5,-6.108399299999999,106.7736033,"-6.1083993,106.7736033"
224,Pos Pemadam Kebakaran Petamburan,ChIJCR13f3T3aS4RUNYEpsxx1_Y,"Jl. K.S. Tubun Jl. Pejompongan Raya No.69, RT.2/RW.3, Petamburan, Kecamatan Tanah Abang, Kota Jakarta Pusat, Daerah Khusus Ibukota Jakarta 11410, Indonesia","fire_station,point_of_interest,establishment",2,5.0,-6.1938078,106.8055053,"-6.1938078,106.8055053"
225,Kantor Sektor Pemadam Kebakaran Kelapa Gading,ChIJ7XHwRtb0aS4R5uEHe2GLrLk,"Jl. Komp. PLN No.6, RT.6/RW.14, Klp. Gading Tim., Kec. Klp. Gading, Jkt Utara, Daerah Khusus Ibukota Jakarta 14240, Indonesia","fire_station,point_of_interest,establishment",10,4.5,-6.175989299999999,106.9044475,"-6.1759893,106.9044475"
226,Dinas Pemadam Kebakaran Slipi,ChIJgYmDl5f2aS4RTyLOTXMc7Jw,"Jl. Slipi III No.10, RT.12/RW.6, Slipi, Kec. Palmerah, Kota Jakarta Barat, Daerah Khusus Ibukota Jakarta 11410, Indonesia","fire_station,point_of_interest,establishment",1,5.0,-6.195624899999999,106.8047261,"-6.1956249,106.8047261"
227,sudin damkar Jakarta timur,ChIJ4UjQDEH1aS4RprdWQFWzkEk,"Jl. Pemuda No.11, RT.11/RW.14, Rawamangun, Kec. Pulo Gadung, Kota Jakarta Timur, Daerah Khusus Ibukota Jakarta 13220, Indonesia","fire_station,point_of_interest,establishment",16,4.8,-6.1927902,106.8758884,"-6.1927902,106.8758884"
228,Markas Pemadam Kebakaran,ChIJGVWeWDX1aS4R4ZekaOhVlug,"RV4P+RRF, RT.8/RW.5, Rawamangun, Pulo Gadung, East Jakarta City, Jakarta 13220, Indonesia","fire_station,point_of_interest,establishment",2,5.0,-6.1929488,106.8870598,"-6.1929488,106.8870598"
229,Casablanca Fire Station,ChIJKwwYW4vzaS4RyR_fs1wnkjU,"Jl. Menteng Pulo No.1, RT.3/RW.9, Menteng Atas, Kecamatan Setiabudi, Kota Jakarta Selatan, Daerah Khusus Ibukota Jakarta 12960, Indonesia","fire_station,point_of_interest,establishment",1,5.0,-6.2218596,106.845043,"-6.2218596,106.845043"
230,Pesanggrahan Ciledug Fire Station,ChIJ9a4JR_7xaS4Ry75wiRHQW10,"Jl. Ciledug Raya No.2, RT.4/RW.3, Petukangan Utara, Kec. Pesanggrahan, Kota Jakarta Selatan, Daerah Khusus Ibukota Jakarta 12270, Indonesia","fire_station,point_of_interest,establishment",11,5.0,-6.236769,106.7577621,"-6.236769,106.7577621"
231,"Cipete Fire Station, South Jakarta",ChIJxZw3EJDxaS4Raj0NJzPKRGc,"Jalan Raya Melati No.11, RT.11/RW.2, Cipete Sel., Kec. Cilandak, Kota Jakarta Selatan, Daerah Khusus Ibukota Jakarta 12410, Indonesia","fire_station,point_of_interest,establishment",12,4.7,-6.269723399999999,106.805165,"-6.2697234,106.805165"
232,Jakarta Fire and Rescue Agency,ChIJkQLh1HP2aS4RI1EBxQUgL3c,"Jl. Kyai Haji Zainul Arifin No.71, RT.10/RW.10, Duri Pulo, Kecamatan Gambir, Kota Jakarta Pusat, Daerah Khusus Ibukota Jakarta 10140, Indonesia","fire_station,point_of_interest,establishment",111,4.6,-6.1618546,106.8084323,"-6.1618546,106.8084323"
233,Kantor Pemadam Kebakaran Jakarta Utara,ChIJAawJ1Q4gai4RyZvQqwyqrrU,"Jl. Komp. Pemadam Kebakaran No.113, RT.11/RW.6, Semper Bar., Kec. Cilincing, Jkt Utara, Daerah Khusus Ibukota Jakarta 14130, Indonesia","fire_station,point_of_interest,establishment",59,4.8,-6.127199,106.926699,"-6.127199,106.926699"
234,Pemadam Kebakaran Prov. DKI Jakarta,ChIJM-tOtFntaS4R6l8Xro8pZLA,"Jl. Komp. TMII Pintu 3, Lubang Buaya, Cipayung, Lubang Buaya, Kec. Cipayung, Kota Jakarta Timur, Daerah Khusus Ibukota Jakarta 13810, Indonesia","fire_station,point_of_interest,establishment",16,4.8,-6.2994175,106.8987587,"-6.2994175,106.8987587"
235,Pemerintah Kotamadya Jakarta Pusat Suku Dinas Pemadam Kebakaran Pos Karet,ChIJfSJTcKP2aS4Rwy-GoWRiuxA,"Jl. Penjernihan 1 No.29, RT.10/RW.6, Bend. Hilir, Kecamatan Tanah Abang, Kota Jakarta Pusat, Daerah Khusus Ibukota Jakarta 10210, Indonesia","fire_station,point_of_interest,establishment",11,3.9,-6.2016621,106.8084023,"-6.2016621,106.8084023"
236,Lebak Bulus Fire Station,ChIJ42YVv83xaS4RhkxBLCwLAWU,"Jl. Raya Pasar Jum'at, RT.10/RW.7, Pd. Pinang, Kec. Kby. Lama, Kota Jakarta Selatan, Daerah Khusus Ibukota Jakarta 12310, Indonesia","fire_station,point_of_interest,establishment",82,4.6,-6.2888991,106.7750208,"-6.2888991,106.7750208"
237,Dinas Pemadam Kebakaran Sektor Gropet 311-01,ChIJlafigDT2aS4Rl65DssaYnAw,"RQWF+W93, RT.10/RW.4, Wijaya Kusuma, Grogol petamburan, West Jakarta City, Jakarta 11460, Indonesia","fire_station,point_of_interest,establishment",9,5.0,-6.152751,106.7734024,"-6.152751,106.7734024"
238,Dinas Penanggulangan Kebakaran Dan Penyelamatan (Damkar Johar),ChIJw3zEC1H0aS4RFMidIk5Jcm8,"Jl. Percetakan Negara II, RT.12/RW.3, Johar Baru, Kec. Johar Baru, Kota Jakarta Pusat, Daerah Khusus Ibukota Jakarta 10560, Indonesia","fire_station,point_of_interest,establishment",140,4.9,-6.1820936,106.8563319,"-6.1820936,106.8563319"
239,Suku Dinas Pemadam Kebakaran,ChIJ9YooKDn0aS4R4ovBQD_Azo4,"Taman Ismail Marzuki Jl. Cikini Raya No.73, RT.1/RW.2, Cikini, Kec. Menteng, Kota Jakarta Pusat, Daerah Khusus Ibukota Jakarta 10330, Indonesia","fire_station,point_of_interest,establishment",11,4.5,-6.1907324,106.8384689,"-6.1907324,106.8384689"
240,Pos Pemadam kebakaran Casablanca,ChIJbZcJeozzaS4Rqbq-cMPo_RY,"Jalan Casablanca Raya No.33B, RT.3/RW.5, Menteng Dalam, Kec. Tebet, Kota Jakarta Selatan, Daerah Khusus Ibukota Jakarta 12960, Indonesia","fire_station,point_of_interest,establishment",11,3.7,-6.2219596,106.8450392,"-6.2219596,106.8450392"
241,"Kebayoran Baru Fire station, South Jakarta",ChIJnXUqVg3xaS4RSJSTye1VxU0,"Jl. Radio II No.4, RT.2/RW.4, Kramat Pela, Kec. Kby. Baru, Kota Jakarta Selatan, Daerah Khusus Ibukota Jakarta 12130, Indonesia","fire_station,point_of_interest,establishment",3,4.3,-6.2489658,106.7936533,"-6.2489658,106.7936533"
242,Pemadam Kebakaran Duri Pulo,ChIJ_RfFJ3L2aS4ROznlSWeVpok,"Jl. Imam Mahbud No.57, RT.2/RW.2, Duri Pulo, Kecamatan Gambir, Kota Jakarta Pusat, Daerah Khusus Ibukota Jakarta 10140, Indonesia","fire_station,point_of_interest,establishment",1,5.0,-6.161531699999999,106.8079064,"-6.1615317,106.8079064"
243,Pemadam kebakaran,ChIJtzimT7b1aS4R3WCIFSXgKRk,"No, Jl. Bungur Besar Raya No.20, RT.13/RW.1, Kel. Senen, Kec. Senen, Kota Jakarta Pusat, Daerah Khusus Ibukota Jakarta 10460, Indonesia","fire_station,point_of_interest,establishment",8,4.9,-6.1687338,106.8433395,"-6.1687338,106.8433395"
244,Kantor Pemadam Kebakaran,ChIJeYgqV_j1aS4RexgPbXZilkw,"Jl. Mangga Dua Dalam No.15, RT.8/RW.7, Mangga Dua Sel., Kecamatan Sawah Besar, Kota Jakarta Pusat, Daerah Khusus Ibukota Jakarta 10730, Indonesia","fire_station,point_of_interest,establishment",1,5.0,-6.137941,106.82652,"-6.137941,106.82652"
245,Suku Dinas Pemadam Kebakaran,ChIJhQg3dyf3aS4RQR3XxkxdH6M,"1, Jl. C No.3, RT.3/RW.1, Kb. Jeruk, Kec. Kb. Jeruk, Kota Jakarta Barat, Daerah Khusus Ibukota Jakarta 10350, Indonesia","fire_station,point_of_interest,establishment",7,4.3,-6.2004763,106.7682822,"-6.2004763,106.7682822"
246,Damkar Jakpus,ChIJ0_jaltX1aS4RhrbTdsrj8qk,"Jl. Tanah Abang I No.1, RW.8, Petojo Sel., Kecamatan Gambir, Kota Jakarta Pusat, Daerah Khusus Ibukota Jakarta 10640, Indonesia","fire_station,point_of_interest,establishment",6,4.3,-6.1731004,106.8190484,"-6.1731004,106.8190484"
247,Dinas Pemadam Kebakaran Mampang Prapatan,ChIJyxTWq93zaS4RRMyqsiljoyA,"Jl. Kapten Tendean No.1, RT.1/RW.2, Kuningan Bar., Kec. Mampang Prpt., Kota Jakarta Selatan, Daerah Khusus Ibukota Jakarta 12710, Indonesia","fire_station,point_of_interest,establishment",11,4.6,-6.2403372,106.8266926,"-6.2403372,106.8266926"
248,Dept. of Fire and Disaster Management,ChIJf-kbTfMdai4RyPW8qy9_QLQ,"VQ9V+VVH, Jl. Tanah Merah, RT.1/RW.16, Penjaringan, Kec. Penjaringan, Jkt Utara, Daerah Khusus Ibukota Jakarta 14440, Indonesia","fire_station,point_of_interest,establishment",2,5.0,-6.130262699999999,106.7947245,"-6.1302627,106.7947245"
249,Dinas Pemadam Kebakaran Kecamatan Pasar Minggu,ChIJt_iVmRPyaS4RTafqQ7PKf78,"Jl. Salihara No.2, RT.1/RW.1, Jati Padang, Ps. Minggu, Kota Jakarta Selatan, Daerah Khusus Ibukota Jakarta 12540, Indonesia","fire_station,point_of_interest,establishment",22,3.8,-6.2844029,106.8377027,"-6.2844029,106.8377027"
250,Dinas Pemadam Kebakaran Mangga Dua,ChIJbQ9XV_j1aS4R4997s9tZhRM,"Jl. Mangga Dua Dalam No.15, RT.1/RW.12, Mangga Dua Sel., Kecamatan Sawah Besar, Kota Jakarta Pusat, Daerah Khusus Ibukota Jakarta 10730, Indonesia","fire_station,point_of_interest,establishment",3,5.0,-6.1375433,106.8270892,"-6.1375433,106.8270892"
251,Pemadam Kebakaran Tanjung Duren,ChIJD4CkTln2aS4ReALd_Q7lXjk,"12, Jl. Tanjung Duren Raya No.1, RW.2, Tj. Duren Utara, Kec. Grogol petamburan, Daerah Khusus Ibukota Jakarta 11470, Indonesia","fire_station,point_of_interest,establishment",42,4.5,-6.1735298,106.7879343,"-6.1735298,106.7879343"
252,DINAS PEMADAM KEBAKARAN PEMKAB LOMBOK BARAT,ChIJ9Ug4P_a7zS0RH_iyOGLSPmI,"84CP+MWP, Dasan Geres, Gerung, West Lombok Regency, West Nusa Tenggara 83363, Indonesia","fire_station,point_of_interest,establishment",0,0.0,-8.6782901,116.1373188,"-8.6782901,116.1373188"
253,Bidang Pemadam Kebakaran Kabupaten Lombok Barat,ChIJldWL6tC-zS0RN0RjRax1V_A,"949G+69G, Jl. TGH. Lopan, Labu Api, Kec. Labuapi, Kabupaten Lombok Barat, Nusa Tenggara Bar. 83361, Indonesia","fire_station,point_of_interest,establishment",0,0.0,-8.6319351,116.1259281,"-8.6319351,116.1259281"
254,POS PEMADAM KEBAKARAN KERUAK,ChIJeeb-pqpTzC0R_pSrAGB-79c,"6FJM+GM3, Jalan Raya, Keruak, East Lombok Regency, West Nusa Tenggara 83672, Indonesia","fire_station,point_of_interest,establishment",5,5.0,-8.768742099999999,116.4841791,"-8.7687421,116.4841791"
255,Pemadam kebakaran,ChIJM2LsPQt5zi0RR9upaNdVZFE,"P7W5+6R6, Kayangan, North Lombok Regency, West Nusa Tenggara, Indonesia","fire_station,point_of_interest,establishment",0,0.0,-8.2543244,116.2595312,"-8.2543244,116.2595312"
256,Satpol PP dan Pemadam Kebakaran,ChIJMwJ1qTHbzS0RtTD5BheoTfg,"J5V5+2CP, Tanjung, North Lombok Regency, West Nusa Tenggara 83352, Indonesia","local_government_office,point_of_interest,establishment",0,0.0,-8.3574249,116.1585636,"-8.3574249,116.1585636"
257,Pos PEMADAM KEBAKARAN Kec. Pringgabaya,ChIJubRpPutHzC0RlJUBkEil0WE,"CJQJ+J7V, Batuyang, Pringgabaya, East Lombok Regency, West Nusa Tenggara 83654, Indonesia","fire_station,point_of_interest,establishment",1,5.0,-8.560889999999999,116.630688,"-8.56089,116.630688"
258,Pemadam kebakaran,ChIJ720NKV-_zS0RgGYV0eB_i3Q,"Jl. Bung Hatta No. 2Cilinaya, Cakranegara, Cilinaya, Kec. Cakranegara, Kota Mataram, Nusa Tenggara Bar. 83127, Indonesia","fire_station,point_of_interest,establishment",4,3.5,-8.5880631,116.1178246,"-8.5880631,116.1178246"
259,Damkar Bayan,ChIJvQcOpyiBzi0RFY1JBoWJsL0,"QCC9+CX, Anyar, Bayan, North Lombok Regency, West Nusa Tenggara 83354, Indonesia","fire_station,point_of_interest,establishment",0,0.0,-8.2288538,116.4198886,"-8.2288538,116.4198886"
260,Dinas Pemadam Kebakaran Kota Mataram,ChIJu1_0cQe_zS0R_fy3sKzfKHE,"Komplek Kantor Pemerintahan, Jalan Lingkar Selatan, Jempong Baru, Mataram, Jempong Baru, Kec. Sekarbela, Kota Mataram, Nusa Tenggara Bar. 83361, Indonesia","fire_station,point_of_interest,establishment",3,4.3,-8.619532399999999,116.0831791,"-8.6195324,116.0831791"
261,UMK PRINGGABAYA,ChIJy-9IDqpJzC0RsislGaANPJw,"9G88+R3X, Jalan Raya, East Sukamulia, Sukamulia, East Lombok Regency, West Nusa Tenggara 83652, Indonesia","fire_station,point_of_interest,establishment",0,0.0,-8.6328406,116.5151798,"-8.6328406,116.5151798"
262,Fire station,ChIJq84mKV-_zS0RWqgshBf_FME,"C469+Q4C, Jl. Terusan Bung Hatta, Cilinaya, Kec. Cakranegara, Kota Mataram, Nusa Tenggara Bar. 83127, Indonesia","fire_station,point_of_interest,establishment",7,4.1,-8.588070499999999,116.117761,"-8.5880705,116.117761"
263,Pemadam Kebakaran,ChIJ1XVow1VJzC0RVWuzHEfHJrc,"9G88+X64, East Sukamulia, Sukamulia, East Lombok Regency, West Nusa Tenggara 83652, Indonesia","point_of_interest,establishment",17,4.7,-8.632605,116.5155931,"-8.632605,116.5155931"
264,PMK Kota Mataram,ChIJH7ooLF-_zS0Rr7hKklVGrak,"C469+V45, Bar., Cilinaya, Kec. Cakranegara, Kota Mataram, Nusa Tenggara Bar. 83122, Indonesia","fire_station,point_of_interest,establishment",3,4.7,-8.5878552,116.1178675,"-8.5878552,116.1178675"
265,Pos Pemadam Kebakaran Kab. LOTIM.,ChIJVVVVVVU2zC0RHDwDxGn61nk,"FHP6+J9H, Jl. Jurusan, Sukamuli, Kec. Suela, Kabupaten Lombok Timur, Nusa Tenggara Bar. 83653, Indonesia","point_of_interest,establishment",0,0.0,-8.5134471,116.5609857,"-8.5134471,116.5609857"
266,Pemadam Kebakaran Kota Malang,ChIJR9VDJgUo1i0RdFJnPkxArqM,"Jl. Bingkil No.1, Ciptomulyo, Kec. Sukun, Kota Malang, Jawa Timur 65148, Indonesia","fire_station,point_of_interest,establishment",130,4.7,-7.992795200000001,112.6287802,"-7.9927952,112.6287802"
267,Mako Pemadam Kebakaran Kabupaten Malang,ChIJJ3LQlhco1i0RooStqWglu5I,"2J8M+J58, Kiduldalem, Klojen, Malang City, East Java 65119, Indonesia","local_government_office,point_of_interest,establishment",9,4.9,-7.9834707,112.6329297,"-7.9834707,112.6329297"
268,Dinas Pemadam Kebakaran Dan Penyelamatan Kota Medan,ChIJpVi35s8xMTARTWfRvx5NRCo,"HMQC+RG2, Jl. Candi Borobudur No.2, Petisah Tengah, Kec. Medan Petisah, Kota Medan, Sumatera Utara 20149, Indonesia","fire_station,point_of_interest,establishment",25,4.9,3.589505,98.671447,"3.589505,98.671447"
269,Kantor Pemadam Kebakaran Laucih Medan Tuntungan,ChIJOXovHUAlMTARELWjVt3V-Gs,"GJ79+MX7, Kemenangan Tani, Medan Tuntungan, Medan City, North Sumatra 20135, Indonesia","fire_station,point_of_interest,establishment",3,5.0,3.5141645,98.6199314,"3.5141645,98.6199314"
270,Dinas Pencehahan dan Pemadam Kebakaran,ChIJi0Qj2XUlMTARcrYSHWqsihw,"GJ79+MX8, Kemenangan Tani, Medan Tuntungan, Medan City, North Sumatra 20135, Indonesia","fire_station,point_of_interest,establishment",1,5.0,3.5141218,98.6199627,"3.5141218,98.6199627"
271,Dinas Pemadam Kebakaran Dan Penyelamatan UPT Wilayah KIM (Utara),ChIJFZuc_fQzMTARybdthrK6rpA,"Jl. P. Natuna Gg. Kim, M A B A R, Kec. Medan Deli, Kota Medan, Sumatera Utara 20242, Indonesia","point_of_interest,establishment",2,5.0,3.6655218,98.671447,"3.6655218,98.671447"
272,UPT KEBAKARAN WIL III,ChIJneCOsogyMTARqIQvbeyKXnE,"MM8C+7P3, M A B A R, Medan Deli, Medan City, North Sumatra 20242, Indonesia","fire_station,point_of_interest,establishment",2,5.0,3.665626099999999,98.671803,"3.6656261,98.671803"
273,Pratama Mandiri. CV,ChIJzwSCQuQxMTAR6QaX5w0P0l0,"JL. T. Amir Hamzah, No. 18A, Sei Agul, Kec. Medan Bar., Kota Medan, Sumatera Utara 20117, Indonesia","fire_station,point_of_interest,establishment",0,0.0,3.6073688,98.6668584,"3.6073688,98.6668584"
274,UPT KEBAKARAN WIL IV,ChIJ9XFUiN3NNjARZa0WuZr31FQ,"QMFJ+PVX, Belawan II, Medan Kota Belawan, Medan City, North Sumatra 20411, Indonesia","fire_station,point_of_interest,establishment",2,5.0,3.7743512,98.6822425,"3.7743512,98.6822425"
275,UPT KEBAKARAN WIL II,ChIJycHEKnY6MTAR-CBz6y59AKY,"GPQ9+X4Q, Timbang Deli, Medan Amplas, Medan City, North Sumatra 20148, Indonesia","fire_station,point_of_interest,establishment",1,4.0,3.5399705,98.71785969999999,"3.5399705,98.7178597"
276,Global Service Mandiri. CV,ChIJfwvrVRwuMTARoBCNyzXoSsY,"Jl. T. Amir Hamzah No.6, Helvetia Tim., Kec. Medan Helvetia, Kota Medan, Sumatera Utara 20114, Indonesia","fire_station,point_of_interest,establishment",1,5.0,3.6081396,98.6570653,"3.6081396,98.6570653"
277,Fire Department Padang,ChIJQ0Dkzye51C8RiFXduBj55ps,"Jl. Rasuna Said No.56, Jati Baru, Kec. Padang Tim., Kota Padang, Sumatera Barat 25129, Indonesia","fire_station,point_of_interest,establishment",7,4.9,-0.9332053,100.3616166,"-0.9332053,100.3616166"
278,DINAS PEMADAM KEBAKARAN KOTA PADANG POS 1 KURANJI,ChIJdz1wy_u51C8RYgIqVVZjDJo,"Jl. Dr. Moh. Hatta No.113, Ps. Ambacang, Kec. Kuranji, Kota Padang, Sumatera Barat 25176, Indonesia","fire_station,point_of_interest,establishment",2,5.0,-0.9318743,100.4101204,"-0.9318743,100.4101204"
279,Kantor Pemadam Pos 4,ChIJA5nG7Su51C8Rtqm16p6WlVA,"3CX7+5MR, Kuranji, Padang City, West Sumatra 25173, Indonesia","fire_station,point_of_interest,establishment",0,0.0,-0.9020095,100.4141508,"-0.9020095,100.4141508"
280,Posko DamkarSektor 2 padang selatan,ChIJzUsyq9y71C8RlGcPQulb36A,"Sebelah Kantor Camat, Jl. Sutan Syahrir, Mata Air, Kec. Padang Sel., Kota Padang, Sumatera Barat 25121, Indonesia","fire_station,point_of_interest,establishment",0,0.0,-0.9753856999999998,100.3775676,"-0.9753857,100.3775676"
281,Pos 3 Pemadam Kebakaran kec.koto tangah (lubuk buaya),ChIJf1jLTYLB1C8R3jSqGqpj1lI,"58HF+MCJ, Jl. Flamboyan, Lubuk Buaya, Kec. Koto Tangah, Kota Padang, Sumatera Barat 25586, Indonesia","fire_station,point_of_interest,establishment",1,5.0,-0.8207824,100.3235207,"-0.8207824,100.3235207"
282,Fire Ground Semen Padang,ChIJuaEeU1e31C8RILds7KZ_qYA,"2FXF+79W, Indarung, Lubuk Kilangan, Padang City, West Sumatra 25168, Indonesia","fire_station,point_of_interest,establishment",1,3.0,-0.9513412,100.4737224,"-0.9513412,100.4737224"
283,Surakarta CITY FIRE DEPARTMENT,ChIJ3Y6shIIWei4RUKYRxiFAD6o,"Jl. Yosodipuro No.162, Mangkubumen, Kec. Banjarsari, Kota Surakarta, Jawa Tengah 57139, Indonesia","fire_station,point_of_interest,establishment",30,4.6,-7.5606122,110.8082352,"-7.5606122,110.8082352"
284,Kantor Dinas Pemadam Kebakaran,ChIJCyAwhYIWei4RRAGrga3bhLU,"CRQ5+R73, Mangkubumen, Banjarsari, Surakarta City, Central Java 57139, Indonesia","local_government_office,point_of_interest,establishment",4,4.8,-7.560466,110.8081825,"-7.560466,110.8081825"
285,Pemadam Kebakaran Jebres Surakarta ( POS INDUK ),ChIJq6qqqv0Wei4R3vWGiqLWNEU,"Jl. Tentara Pelajar No.5, Jebres, Kec. Jebres, Kota Surakarta, Jawa Tengah 57126, Indonesia","fire_station,point_of_interest,establishment",22,4.8,-7.5565344,110.847979,"-7.5565344,110.847979"
286,Yogyakarta Fire Station,ChIJ1xXx7GJXei4RtgBp0vDuHc4,"59XR+HQ2, Jl. Ipda Tut Harsono, Muja Muju, Kec. Umbulharjo, Kota Yogyakarta, Daerah Istimewa Yogyakarta 55165, Indonesia","fire_station,point_of_interest,establishment",29,4.5,-7.8011267,110.3919614,"-7.8011267,110.3919614"
287,POS Pemadam Kebakaran BPBD,ChIJOQy-9j1Yei4Rk9JL0MBj1sc,"Jl. Kyai Mojo No.70C, Bener, Kec. Tegalrejo, Kota Yogyakarta, Daerah Istimewa Yogyakarta 55244, Indonesia","fire_station,point_of_interest,establishment",9,5.0,-7.782046599999999,110.3550838,"-7.7820466,110.3550838"
288,dinas kebakaran kota yogyakarta,ChIJk_gRuWRXei4Rx9QvEXq3fcw,"59XR+JH4, Muja Muju, Umbulharjo, Yogyakarta City, Special Region of Yogyakarta 55165, Indonesia","point_of_interest,establishment",4,5.0,-7.800969800000001,110.3913964,"-7.8009698,110.3913964"
289,Pos Pemadam kebakaran UGM,ChIJH7omNVRZei4RH9QExxUnJ7c,"Jl. Colombo Yogyakarta No.3, RW.02, Sagan, Caturtunggal, Kec. Depok, Kabupaten Sleman, Daerah Istimewa Yogyakarta 55281, Indonesia","fire_station,point_of_interest,establishment",4,3.8,-7.7758253,110.379663,"-7.7758253,110.379663"
290,Alat Pemadam Jogja,ChIJkyVhhYNXei4R9_TzbdwiDl0,"Jl. Kapten Laut Samadikun No.4, RT.03/RW.01, Wirogunan, Kec. Mergangsan, Kota Yogyakarta, Daerah Istimewa Yogyakarta 55151, Indonesia","point_of_interest,establishment",21,4.7,-7.802822900000001,110.3732358,"-7.8028229,110.3732358"
291,UPT Damkar Sleman,ChIJGUn_cMpYei4Risi7P0GvPs8,"No.3, Beran,, Jl. Candi Gebang, Beran Kidul, Tridadi, Kec. Sleman, Kabupaten Sleman, Daerah Istimewa Yogyakarta 55511, Indonesia","fire_station,point_of_interest,establishment",42,5.0,-7.717700900000001,110.3552473,"-7.7177009,110.3552473"
292,PATIGHENI PEMADAM KEBAKARAN,ChIJkYPdCuxXei4RffiZAQBfEi4,"Jl. Sugeng Jeroni No.32, Gedongkiwo, Kec. Mantrijeron, Kota Yogyakarta, Daerah Istimewa Yogyakarta 55142, Indonesia","point_of_interest,establishment",13,4.7,-7.812291599999999,110.3529508,"-7.8122916,110.3529508"
293,Alat Pemadam Api Jogja,ChIJn6cxW1NXei4R_VJYws-PO0Q,"Jl. Sugeng Jeroni No.72, Patangpuluhan, Wirobrajan, Kota Yogyakarta, Daerah Istimewa Yogyakarta 55251, Indonesia","point_of_interest,establishment",2,5.0,-7.8118521,110.3499329,"-7.8118521,110.3499329"
294,Bak Tandom Pemadam Kebakaran,ChIJu0CooyNYei4Rn7X9jnyjLuw,"6965+7HR, Jl. Jiagran, Pringgokusuman, Gedong Tengen, Kota Yogyakarta, Daerah Istimewa Yogyakarta 55272, Indonesia","fire_station,point_of_interest,establishment",0,0.0,-7.7892613,110.3588781,"-7.7892613,110.3588781"
295,Patigheni,ChIJAXevRj9Yei4Rb4oxeKr4-Rw,"JL. Kricak Kidul, TR 1/ 977RT.41 / RW 09, Kricak, Kec. Tegalrejo, Kota Yogyakarta, Daerah Istimewa Yogyakarta 55242, Indonesia","fire_station,point_of_interest,establishment",0,0.0,-7.778343700000001,110.3585014,"-7.7783437,110.3585014"
