,name,place_id,formatted_address,types,user_ratings_total,rating,lat,long,latlong
0,Balimed Hospital,ChIJR-nWnqtA0i0RJl4QlKbViYU,"Jl. Mahendradatta No.57 X, Padangsambian, Kec. Denpasar Bar., Kota Denpasar, Bali 80119, Indonesia","hospital,health,point_of_interest,establishment",2892,4.4,-8.656813399999999,115.1910881,"-8.6568134,115.1910881"
1,Rumah Sakit Prima Medika,ChIJ8ci7n-pA0i0REuPr2CxL0lE,"Jl. Raya Sesetan No.10, Dauh Puri Klod, Kec. Denpasar Bar., Kota Denpasar, Bali 80223, Indonesia","hospital,doctor,health,point_of_interest,establishment",589,3.7,-8.6782933,115.2142333,"-8.6782933,115.2142333"
2,Bali Royal Hospital,ChIJ_QT93IxA0i0RH1mrRsHGg54,"Jl. Tantular No.6, Renon, Kec. Denpasar Tim., Kota Denpasar, Bali 80226, Indonesia","hospital,health,point_of_interest,establishment",872,3.9,-8.6683766,115.2277107,"-8.6683766,115.2277107"
3,Rumah Sakit Umum Bali Jimbaran,ChIJJxla6URF0i0RTt3NNjWAHSA,"Jl. Raya Kampus Unud No.52, Jimbaran, Kec. Kuta Sel., Kabupaten Badung, Bali 80361, Indonesia","hospital,health,point_of_interest,establishment",559,3.2,-8.7909586,115.1767956,"-8.7909586,115.1767956"
4,RS Bali Mandara,ChIJNRVLr7xB0i0RGTlSyXC5Rhg,"Jl. Bypass Ngurah Rai No.548, Sanur Kauh, Denpasar Selatan, Kota Denpasar, Bali, Indonesia","hospital,doctor,health,point_of_interest,establishment",611,4.0,-8.7039112,115.2488658,"-8.7039112,115.2488658"
5,Siloam Hospitals Denpasar,ChIJhdC5rbVG0i0RoU6mRgqYA20,"Jl. Sunset Road No.818, Kuta, Kec. Kuta, Kabupaten Badung, Bali 80361, Indonesia","hospital,health,point_of_interest,establishment",2926,4.0,-8.7150402,115.1854235,"-8.7150402,115.1854235"
6,RUMAH SAKIT Udayana,ChIJb9KTNpFA0i0RLQPzlfmRuZc,"Jl. P.B. Sudirman No.1, Dauh Puri, Kec. Denpasar Bar., Kota Denpasar, Bali 80232, Indonesia","hospital,health,point_of_interest,establishment",296,3.2,-8.663420499999999,115.2186865,"-8.6634205,115.2186865"
7,Prof. dr. I.G.N.G. Ngoerah General Hospital,ChIJDXSNouFA0i0R3SCppImdLIQ,"Jl. Diponegoro, Dauh Puri Klod, Kec. Denpasar Bar., Kota Denpasar, Bali 80113, Indonesia","hospital,health,point_of_interest,establishment",1062,3.0,-8.6758359,115.2127549,"-8.6758359,115.2127549"
8,Rumah Sakit Universitas Udayana,ChIJnwoXK5dE0i0R36yhyJvF760,"Jl. Rumah Sakit Unud, Jimbaran, Kec. Kuta Sel., Kabupaten Badung, Bali 80361, Indonesia","hospital,health,point_of_interest,establishment",232,3.9,-8.790175,115.174385,"-8.790175,115.174385"
9,Graha Asih Hospital,ChIJt4q5wAVE0i0RW6WaESc45cI,"Jimbaran, Kuta Selatan, Jl. Bypass Ngurah Rai No.33, Kuta, Kec. Kuta, Kabupaten Badung, Bali 80361, Indonesia","hospital,health,point_of_interest,establishment",27,3.5,-8.7322695,115.178982,"-8.7322695,115.178982"
10,BIMC Hospital Nusa Dua,ChIJaStZuCVD0i0Rh4jR5CpDbd4,"Kawasan ITDC Blok D, Jl. Nusa Dua, Benoa, Kec. Kuta Sel., Kabupaten Badung, Bali 80363, Indonesia","hospital,health,point_of_interest,establishment",382,4.5,-8.799374499999999,115.2284611,"-8.7993745,115.2284611"
11,Rumah Sakit Umum Surya Husadha Nusa Dua,ChIJMWIS3zZD0i0RUfTt1ShndlU,"Jalan Siligita, Jl. Nusa Dua No.14, Benoa, Kec. Kuta Sel., Kabupaten Badung, Bali 80363, Indonesia","hospital,health,point_of_interest,establishment",527,3.9,-8.8041585,115.2173765,"-8.8041585,115.2173765"
12,Rumah Sakit Ibu Dan Anak Harapan Bunda,ChIJDRj4JPRA0i0RRB4U34Kxj6M,"Tukad Unda St No.1, Sumerta Kelod, East Denpasar, Denpasar City, Bali 80234, Indonesia","hospital,health,point_of_interest,establishment",85,3.7,-8.673661,115.2324078,"-8.673661,115.2324078"
13,Surya Husadha General Hospital,ChIJMZ-2XDA_0i0RxfHyeBf9D8o,"Cokroaminoto St No.356, Ubung Kaja, Denpasar Utara, Denpasar City, Bali 80116, Indonesia","hospital,doctor,health,point_of_interest,establishment",178,3.5,-8.622876,115.1991477,"-8.622876,115.1991477"
14,BIMC Hospital,ChIJQwjqQLJG0i0RLZEEjSM51iQ,"Jl. Bypass Ngurah Rai No.100X, Kuta, Kec. Kuta, Kabupaten Badung, Bali 80361, Indonesia","hospital,health,point_of_interest,establishment",1659,4.7,-8.721513999999999,115.1845783,"-8.721514,115.1845783"
15,Hospital Ari Canti,ChIJweux84090i0RNGpygA10KZk,"Jl. Raya Mas, MAS, Kecamatan Ubud, Kabupaten Gianyar, Bali 80571, Indonesia","hospital,doctor,health,point_of_interest,establishment",964,4.5,-8.5520584,115.2731543,"-8.5520584,115.2731543"
16,Rumah Sakit Bhayangkara Denpasar,ChIJF-joBJtA0i0RpONkZ3TwfxI,"2F, Jl. Trijata No.32, Sumerta Kelod, Denpasar Utara, Denpasar City, Bali 80233, Indonesia","hospital,health,point_of_interest,establishment",354,4.4,-8.645991800000001,115.2245323,"-8.6459918,115.2245323"
17,Rumah Sakit Kusta Balun,ChIJT8C4wl0_0i0ROccWIpQiYCE,"Jl. Maruti No.10, Pemecutan Kaja, Kec. Denpasar Utara, Kota Denpasar, Bali 80231, Indonesia","hospital,health,point_of_interest,establishment",0,0.0,-8.644376,115.2107671,"-8.644376,115.2107671"
18,Pucuk Permata Hati Mother and Child Hospital,ChIJhX3oXjRH0i0RqGpgH8-vSGE,"Jl. Teuku Umar Barat No.71XX, Padangsambian Klod, Kec. Denpasar Bar., Kota Denpasar, Bali 80117, Indonesia","hospital,doctor,health,point_of_interest,establishment",157,3.7,-8.6759811,115.1855884,"-8.6759811,115.1855884"
19,Wangaya Regional General Hospital,ChIJ-2UcDWA_0i0RAxIbhn-nUWk,"Jl. Kartini No.133, Dauh Puri Kaja, Kec. Denpasar Utara, Kota Denpasar, Bali 80231, Indonesia","hospital,doctor,health,point_of_interest,establishment",639,4.0,-8.6483417,115.212848,"-8.6483417,115.212848"
20,Kertha Usadha Hospital,ChIJ0ZNbE2Wa0S0RaG2AdLLeU2o,"Jl. Cendrawasih No.5 - 7, Kaliuntu, Kec. Buleleng, Kabupaten Buleleng, Bali 81116, Indonesia","hospital,point_of_interest,doctor,health,establishment",426,4.5,-8.110056199999999,115.0858995,"-8.1100562,115.0858995"
21,Kasih Ibu General Hospital,ChIJ8ci7n-pA0i0RIhckQqYNwx4,"Jl. Teuku Umar No.120, Dauh Puri Kauh, Kec. Denpasar Bar., Kota Denpasar, Bali 80114, Indonesia","hospital,point_of_interest,health,establishment",687,4.0,-8.6777188,115.2054497,"-8.6777188,115.2054497"
22,Kasih Ibu General Hospital Kedonganan,ChIJmcCbFm5E0i0RA3QwoVI5HZE,"No.69 A, Jl. Raya Uluwatu, Kedonganan, Kec. Kuta Sel., Bali, 80361, Indonesia","hospital,point_of_interest,doctor,health,establishment",398,4.3,-8.760138,115.175943,"-8.760138,115.175943"
23,RSK Bedah dan Penyakit Dalam BIMC,ChIJOzYnacRA0i0R2Haw1io3n-k,"86C4+W54, Dauh Puri Kauh, Kuta, Badung Regency, Bali, Indonesia","hospital,point_of_interest,health,establishment",0,0.0,-8.6777342,115.2054675,"-8.6777342,115.2054675"
24,Manuaba Hospital,ChIJyVs839E_0i0R8sE-ebtp7xw,"Cokroaminoto St No.28, Pemecutan Kaja, Denpasar Utara, Denpasar City, Bali 80116, Indonesia","hospital,point_of_interest,health,establishment",66,3.8,-8.644085100000002,115.2095007,"-8.6440851,115.2095007"
25,Rumah Sakit Garbamed (Garbamed Hospital),ChIJL7dvQLs40i0RJlpnUg4x_OU,"Jl. Raya Kerobokan No.53, Lingkungan Jambe, Kerobokan Kaja, Kec. Kuta Utara, Kabupaten Badung, Bali 80361, Indonesia","hospital,point_of_interest,health,establishment",354,3.7,-8.6419526,115.1725212,"-8.6419526,115.1725212"
26,Rumah Sakit Umum Puri Raharja,ChIJ5fpBb2RB0i0Ruude0xno-y0,"Jl. WR Supratman No.14 - 19, Sumerta, Kec. Denpasar Tim., Kota Denpasar, Bali 80233, Indonesia","hospital,point_of_interest,health,establishment",213,4.0,-8.6495713,115.2263812,"-8.6495713,115.2263812"
27,RSU BaliMed State,ChIJ_____3hi0S0RaV2uHHJ5BGI,"Jl. Hayam Wuruk No.23, Kel, Dangin Tukadaya, Kec. Jembrana, Kabupaten Jembrana, Bali 82218, Indonesia","hospital,point_of_interest,health,establishment",279,4.6,-8.3609528,114.6458227,"-8.3609528,114.6458227"
28,Rumah Sakit Ibu dan Anak Puri Bunda Denpasar,ChIJr2wmkmg_0i0RYTXJ0zftBkA,"Jl. Gatot Subroto VI No.19, Dauh Puri Kaja, Kec. Denpasar Utara, Kota Denpasar, Bali 80233, Indonesia","hospital,point_of_interest,doctor,health,establishment",1019,4.5,-8.638843999999999,115.2165767,"-8.638844,115.2165767"
29,RSU Famili Husada,ChIJBxvuLIsW0i0R7uNF7w3l8no,"Jl. Astina Timur No.8A, Samplangan, Kec. Gianyar, Kabupaten Gianyar, Bali 80512, Indonesia","hospital,point_of_interest,health,establishment",291,4.3,-8.540653299999999,115.3346489,"-8.5406533,115.3346489"
30,Rumah sakit,ChIJtdMYv3Q_0i0RmIFrQO-V69A,"Jl. WR Supratman No.256, Kesiman Kertalangu, Kec. Denpasar Tim., Kota Denpasar, Bali 80237, Indonesia","hospital,point_of_interest,health,establishment",0,0.0,-8.642078999999999,115.2516766,"-8.642079,115.2516766"
31,RS BaliMed Buleleng,ChIJk260Y3ma0S0Ra-qJy-Wsao4,"Jl. Gn. Lempuyang No.9X, Banjar Tegal, Kec. Buleleng, Kabupaten Buleleng, Bali 81119, Indonesia","hospital,point_of_interest,health,establishment",207,4.0,-8.1273845,115.0885667,"-8.1273845,115.0885667"
32,Wing Amertha RS Sanglah,ChIJsTKWBsJA0i0R37omNgUGpfw,"Parking lot, Jl.Kesehatan No.1, Dauh Puri Klod, Denpasar Barat, Denpasar City, Bali 80114, Indonesia","hospital,point_of_interest,health,establishment",31,3.8,-8.675981499999999,115.2123685,"-8.6759815,115.2123685"
33,RS Dam XVI Denpasar,ChIJc4wRwZY70i0RO3sdvziX848,"Jalan I Gusti Ngurah Rai, No. 70, Singaraja, Mengwi, Kec. Mengwi, Kabupaten Badung, Bali 80351, Indonesia","hospital,point_of_interest,health,establishment",0,0.0,-8.545581,115.169886,"-8.545581,115.169886"
34,Murni Teguh Hospital Tuban Bali,ChIJt2W_MtJF0i0RURAVGtql15w,"Jl. Raya Tuban No.1A/45, Tuban, Kec. Kuta, Kabupaten Badung, Bali 80361, Indonesia","hospital,point_of_interest,health,establishment",462,4.7,-8.737361,115.1782796,"-8.737361,115.1782796"
35,RS Rumah Bunda,ChIJ6c9AeGY70i0RPC1-kYhJ-5M,"C5Q7+P8Q, Jl. Terminal, Mengwitani, Kec. Mengwi, Kabupaten Badung, Bali 83051, Indonesia","hospital,point_of_interest,health,establishment",0,0.0,-8.560657599999999,115.1633686,"-8.5606576,115.1633686"
36,Kasih Ibu General Hospital Saba,ChIJnTwFgQkV0i0RertpUn4hPiQ,"Jl. Pantai Saba No.9, Saba, Kec. Blahbatuh, Kabupaten Gianyar, Bali 80581, Indonesia","hospital,point_of_interest,health,establishment",253,4.0,-8.605141,115.313481,"-8.605141,115.313481"
37,Premagana General Hospital,ChIJVwCG19Q_0i0R3HcFb1Vcp1E,"Jl. Hyang Sangsi Jl. Raya Banjar Tubuh No.2, Batubulan, Kec. Sukawati, Kabupaten Gianyar, Bali 80582, Indonesia","hospital,point_of_interest,health,establishment",111,3.3,-8.6150419,115.2579439,"-8.6150419,115.2579439"
38,Parama Sidhi General Hospital,ChIJ99Mmzmma0S0RDpqZb0DyOXs,"Jl. A. Yani No.171, Baktiseraga, Kec. Buleleng, Kabupaten Buleleng, Bali 81116, Indonesia","hospital,point_of_interest,health,establishment",281,4.3,-8.1224546,115.0710934,"-8.1224546,115.0710934"
39,RS Graha Husada,ChIJRYbcrV0_0i0R28n1Mj2kQ1g,"Cokroaminoto St No.30, Pemecutan Kaja, Denpasar Utara, Denpasar City, Bali 80231, Indonesia","hospital,point_of_interest,health,establishment",0,0.0,-8.6433391,115.2100004,"-8.6433391,115.2100004"
40,Rumah Sakit Ibu dan Anak Puri Bunda,ChIJW_w3I_RA0i0Rt561ubTdmqM,"Jl. Gatot Subroto VI No.19, Panjer, Denpasar Selatan, Kota Denpasar, Bali 80233, Indonesia","hospital,point_of_interest,health,establishment",0,0.0,-8.673549999999999,115.232172,"-8.67355,115.232172"
41,RSU Dharma Yadnya,ChIJwc8M144_0i0RRPFankuYfzU,"Tohpati, Tim, Jl. WR Supratman No.256, Kesiman Kertalangu, Kec. Denpasar Tim., Kota Denpasar, Bali 80237, Indonesia","hospital,point_of_interest,health,establishment",130,3.0,-8.6424256,115.2516111,"-8.6424256,115.2516111"
42,R S Bangli Medika Canti,ChIJPbbJqt8Z0i0RN6of7eO52Vs,"JL. L.C. Subak Aya, Kawan, Kec. Bangli, Kabupaten Bangli, Bali 80661, Indonesia","hospital,doctor,point_of_interest,health,establishment",104,3.5,-8.4658059,115.3514038,"-8.4658059,115.3514038"
43,RS BaliMed Karangasem,ChIJCz3NbBQG0i0RfBUEGZasUHA,"Jl. Nenas, Kecicang, Kec. Bebandem, Kabupaten Karangasem, Bali 80811, Indonesia","hospital,doctor,point_of_interest,health,establishment",95,3.6,-8.4453905,115.5855915,"-8.4453905,115.5855915"
44,Rumah Sakit Mata Ramata,ChIJ8xm4NZQ50i0R4QXigj5MKNE,"Jl. Gatot Subroto Barat No.429, Padangsambian Kaja, Kec. Denpasar Bar., Kota Denpasar, Bali 80117, Indonesia","hospital,point_of_interest,health,establishment",156,4.3,-8.636843899999999,115.1875228,"-8.6368439,115.1875228"
45,RS Kusta Balun,ChIJRXWzGKRA0i0R-l2hkvA__E0,"Jl. Maruti No.10, Pemecutan, Kec. Denpasar Bar., Kota Denpasar, Bali 80111, Indonesia","hospital,point_of_interest,health,establishment",0,0.0,-8.656124,115.205283,"-8.656124,115.205283"
46,PAYANGAN HOSPITAL (RUMAH SAKIT UMUM PAYANGAN),ChIJBWn79Ywj0i0R_7_6j2_px24,"Jl. Raya Payangan, Melinggih, Kec. Payangan, Kabupaten Gianyar, Bali 80572, Indonesia","hospital,point_of_interest,health,establishment",79,3.9,-8.4220156,115.2455913,"-8.4220156,115.2455913"
47,Ruang Nakula RSJ Provinsi Bali,ChIJPzjFQWgZ0i0RsoGk6QLBh28,"G9V2+HF2, Unnamed Road, Kawan, Bangli, Bangli Regency, Bali 80661, Indonesia","hospital,point_of_interest,health,establishment",0,0.0,-8.4561157,115.3511446,"-8.4561157,115.3511446"
48,RSU Bhakti Rahayu Denpasar,ChIJRXWzGKRA0i0RcU6SP6S6_W4,"Jl. Gatot Subroto II No.11, Dangin Puri Kaja, Kec. Denpasar Utara, Kota Denpasar, Bali 80234, Indonesia","hospital,point_of_interest,health,establishment",739,4.2,-8.6370905,115.2209371,"-8.6370905,115.2209371"
49,Ganesha General Hospital,ChIJe4vSJTQ-0i0R1rhaQOoKlG4,"Jalan Raya Celuk Sukawati, Batubulan, Gianyar, Kabupaten Gianyar, Bali 80582, Indonesia","hospital,point_of_interest,health,establishment",317,4.0,-8.6015376,115.2638514,"-8.6015376,115.2638514"
50,RSU Bali Holistik,ChIJbeJc_2070i0Rszk1Yq3nvUQ,"Desa Belayu, Jalan Raya Umabian, Kecamatan Marga, Peken, Kec. Tabanan, Kabupaten Tabanan, Bali 80351, Indonesia","hospital,point_of_interest,health,establishment",25,4.7,-8.5214351,115.1707078,"-8.5214351,115.1707078"
51,Rumah Sakit Windu Husada,ChIJbd2bNDQ80i0Ra8be9fCXvkg,"Jl. Raya Mambal No.17, Mekar Bhuwana, Kec. Abiansemal, Kabupaten Badung, Bali 80352, Indonesia","hospital,point_of_interest,health,establishment",44,4.4,-8.550489899999999,115.2314986,"-8.5504899,115.2314986"
52,Rumah sakit budi agung,ChIJC9zFSuc_0i0RN8wCG33vW0E,"Jl. Patimura, Dangin Puri Kaja, Kec. Denpasar Utara, Kota Denpasar, Bali, Indonesia","hospital,point_of_interest,health,establishment",0,0.0,-8.649189999999999,115.2202583,"-8.64919,115.2202583"
53,Rumah Sakit Umum Semara Ratih,ChIJuQveeDEh0i0RuAkh10RSv08,"Jl. Raya Denpasar Singaraja Desa Luwus Baturiti, Mekarsari, Kabupaten Tabanan, Bali 82191, Indonesia","hospital,point_of_interest,health,establishment",135,4.4,-8.3815737,115.195506,"-8.3815737,115.195506"
54,General Hospital Wisma Prashanti,ChIJGS2DH2Q60i0RoAEoZjNTymk,"Jl. Yeh Gangga I No.9, Gubug, Kec. Tabanan, Kabupaten Tabanan, Bali 82113, Indonesia","hospital,doctor,point_of_interest,health,establishment",122,2.9,-8.5421851,115.1117891,"-8.5421851,115.1117891"
55,Rs Sanlah,ChIJKc9CnV1B0i0R8eME4ZmPfxk,"9628+2J5, Dangin Puri Kauh, Denpasar Utara, Denpasar City, Bali 80233, Indonesia","hospital,point_of_interest,health,establishment",2,5.0,-8.6499945,115.2166165,"-8.6499945,115.2166165"
56,Rumah Sakit Kertha Usada II,ChIJQ8kDUw1H0i0RufNo-yCIsLg,"Jl. Cendrawasih No.5, Kerobokan Kelod, Singaraja, Kabupaten Buleleng, Bali 80361, Indonesia","hospital,point_of_interest,health,establishment",0,0.0,-8.6747859,115.1528,"-8.6747859,115.1528"
57,Badan Pelayanan Khusus Rumah Sakit Indera Masyarakat,ChIJsxuzxl0_0i0R4IKUhTeSua0,"Jl. Maruti No.10, Pemecutan Kaja, Kec. Denpasar Utara, Kota Denpasar, Bali 80111, Indonesia","hospital,point_of_interest,health,establishment",8,4.1,-8.644376,115.2107671,"-8.644376,115.2107671"
58,RSGM Universitas Mahasaraswati,ChIJ3ZMTnjJB0i0R3irj05sEF5M,"Jl. Kamboja No.11A, Dangin Puri Kangin, Kec. Denpasar Utara, Kota Denpasar, Bali 80233, Indonesia","hospital,point_of_interest,health,establishment",173,4.9,-8.6525566,115.2246485,"-8.6525566,115.2246485"
59,Ruang Bhisma RSJ Provinsi Bali,ChIJe3pJ_BYZ0i0Ry8VyUGePOIw,"G9V2+H6G, Unnamed Road, Kawan, Bangli, Bangli Regency, Bali 80661, Indonesia","hospital,point_of_interest,health,establishment",0,0.0,-8.4560534,115.3505683,"-8.4560534,115.3505683"
60,Rumah Sakit Mata Bali Mandara,ChIJs5pg15xA0i0RUbUqSsL2dfk,"Jl. Angsoka No.8, Dangin Puri Kangin, Kec. Denpasar Utara, Kota Denpasar, Bali 80236, Indonesia","hospital,doctor,point_of_interest,health,establishment",315,4.5,-8.652282,115.2237969,"-8.652282,115.2237969"
61,Rumah Sakit Jiwa Bina Atma,ChIJ99SCGzg_0i0R5Pfrqy9lxl8,"256 Km, Jl. Cokroaminoto No.5, Bali 80111, Indonesia","hospital,health,point_of_interest,establishment",0,0.0,-8.629999999999999,115.201189,"-8.63,115.201189"
62,Rumah Sakit Mangusada Badung,ChIJBxGBuf070i0RGRWxy6hfHKg,"Jalan Raya Kapal, Mangupura, Mengwi, Kapal, Kec. Mengwi, Kabupaten Badung, Bali 80351, Indonesia","hospital,doctor,health,point_of_interest,establishment",379,3.4,-8.578659799999999,115.1829684,"-8.5786598,115.1829684"
63,Dharma Kerti General Hospital,ChIJhSn73x4u0i0RVqFYrhLUlOo,"Jl. Teratai No.16, Dauh Peken, Kec. Tabanan, Kabupaten Tabanan, Bali 82113, Indonesia","hospital,doctor,health,point_of_interest,establishment",88,4.3,-8.539451,115.1189389,"-8.539451,115.1189389"
64,Rumah Sakit Pratama Kubu,ChIJwWoPWHrw0S0RPtUjmCm2AZQ,"Dusun Labuan Sari, Tianyar Bar., Kec. Kubu, Kabupaten Karangasem, Bali 80853, Indonesia","hospital,health,point_of_interest,establishment",6,3.3,-8.1817558,115.4645835,"-8.1817558,115.4645835"
65,Rumah Sakit Umum Premagana,ChIJja8jlHkV0i0R5uA0OXg8D8s,"97RV+PGV, Sukawati, More, Bali, Indonesia","hospital,health,point_of_interest,establishment",0,0.0,-8.608127999999999,115.293792,"-8.608128,115.293792"
66,Bandung City Regional General Hospital,ChIJF4YC5zTdaC4RqyBWcV_dODI,"Jl. Rumah Sakit No.22, Pakemitan, Kec. Cinambo, Kota Bandung, Jawa Barat 45474, Indonesia","dentist,hospital,point_of_interest,health,establishment",440,3.0,-6.9156688,107.698854,"-6.9156688,107.698854"
67,Muhammadiyah Hospital Bandung,ChIJY1h6233oaC4RKpNpFeR-zBc,"Jl. K.H. Ahmad Dahlan No.53, Turangga, Kec. Lengkong, Kota Bandung, Jawa Barat 40264, Indonesia","hospital,doctor,point_of_interest,health,establishment",759,2.9,-6.9335792,107.6231599,"-6.9335792,107.6231599"
68,Bandung Advent Hospital,ChIJb-auU1nmaC4RCyPrneTV6W4,"Jl. Cihampelas No.161, Cipaganti, Kecamatan Coblong, Kota Bandung, Jawa Barat 40131, Indonesia","hospital,doctor,point_of_interest,health,establishment",753,4.0,-6.892076599999999,107.6032797,"-6.8920766,107.6032797"
69,Rumah Sakit Ibu dan Anak Limijati,ChIJ6ZQ8xEnmaC4RtLvEb0GdDcA,"Jalan, LLRE Martadinata St No.39, Citarum, Bandung Wetan, Bandung City, West Java 40115, Indonesia","hospital,doctor,point_of_interest,health,establishment",577,3.6,-6.9061834,107.6137002,"-6.9061834,107.6137002"
70,Rumah Sakit Rajawali,ChIJjbRDxOHlaC4RC-LoV7W3cj8,"Jl. Rajawali Barat No.38, Maleber, Kec. Andir, Kota Bandung, Jawa Barat 40184, Indonesia","dentist,hospital,point_of_interest,health,establishment",332,3.0,-6.9123965,107.5734226,"-6.9123965,107.5734226"
71,Al Islam Hospital,ChIJg4U_eafCaC4RtJL_OrczonU,"Jl. Soekarno Hatta No.644, Manjahlega, Kec. Rancasari, Kota Bandung, Jawa Barat 40286, Indonesia","hospital,point_of_interest,health,establishment",1436,4.2,-6.9390073,107.6691759,"-6.9390073,107.6691759"
72,Santosa Hospital Bandung Central,ChIJN_fC0BfmaC4Ru35um3UkEUM,"Jl. Kebon Jati No.38, Kb. Jeruk, Kec. Andir, Kota Bandung, Jawa Barat 40181, Indonesia","dentist,hospital,point_of_interest,health,establishment",2211,3.8,-6.9154958,107.600376,"-6.9154958,107.600376"
73,Immanuel Hospital Bandung,ChIJ67iOZzrmaC4RHUTJZgyF108,"Jl. Raya Kopo No.161, Situsaeur, Kec. Bojongloa Kidul, Kota Bandung, Jawa Barat 40233, Indonesia","dentist,hospital,point_of_interest,health,establishment",1071,4.0,-6.935990599999999,107.5965182,"-6.9359906,107.5965182"
74,RS Unggul Karsa Medika,ChIJmWUO6R_vaC4REVS7Id74X5Y,"Taman Kopo Indah III Blok H-1, 40218, Mekar Rahayu, Kec. Margaasih, Kabupaten Bandung, Jawa Barat 40218, Indonesia","hospital,dentist,doctor,point_of_interest,health,establishment",585,4.1,-6.970310800000001,107.5491866,"-6.9703108,107.5491866"
75,Dr. Hasan Sadikin Central General Hospital,ChIJWTAYp0LmaC4R5WtgJNL_etA,"Jl. Pasteur No.38, Pasteur, Kec. Sukajadi, Kota Bandung, Jawa Barat 40161, Indonesia","hospital,doctor,point_of_interest,health,establishment",1810,3.0,-6.8981588,107.5983954,"-6.8981588,107.5983954"
76,Special Hospital Maternal and Child,ChIJ74yBzZ_oaC4RxEJ1ORRVmuE,"Jl. Astana Anyar No.224, Nyengseret, Kec. Astanaanyar, Kota Bandung, Jawa Barat 40242, Indonesia","hospital,point_of_interest,health,establishment",247,3.5,-6.9292824,107.600473,"-6.9292824,107.600473"
77,Rumah Sakit Umum Bungsu,ChIJe3de6C3maC4RG5EQreD2Gks,"Jl. Veteran No.6, Kb. Pisang, Kec. Sumur Bandung, Kota Bandung, Jawa Barat 40112, Indonesia","hospital,point_of_interest,health,establishment",153,3.7,-6.9185474,107.6133476,"-6.9185474,107.6133476"
78,RSIA Melinda,ChIJjwWot0DmaC4RrOe4Y3UOlz4,"Jl. Pajajaran No.46, Pasir Kaliki, Kec. Cicendo, Kota Bandung, Jawa Barat 40171, Indonesia","hospital,point_of_interest,health,establishment",206,3.9,-6.9067915,107.6032684,"-6.9067915,107.6032684"
79,RSIA Grha Bunda,ChIJ34uCIcH2aS4RniOvWHrTf_A,"Jl. Terusan Jakarta No.15 - 17, Babakan Surabaya, Kec. Kiaracondong, Kota Bandung, Jawa Barat 40281, Indonesia","hospital,doctor,point_of_interest,health,establishment",562,4.0,-6.9132346,107.6456023,"-6.9132346,107.6456023"
80,Rumah Sakit Santo Yusup,ChIJO6Geb8DnaC4R0Jaq3Whs8Aw,"Jl. Cikutra No.7, Cikutra, Kec. Cibeunying Kidul, Kota Bandung, Jawa Barat 40124, Indonesia","dentist,hospital,point_of_interest,health,establishment",833,3.4,-6.9066719,107.6430629,"-6.9066719,107.6430629"
81,Santo Borromeus Hospital,ChIJU8k7DlHmaC4RQ2mUo1ERm1k,"Jl. Ir. H. Juanda No.100, Lebakgede, Kecamatan Coblong, Kota Bandung, Jawa Barat 40132, Indonesia","hospital,point_of_interest,health,establishment",1389,3.8,-6.893995500000001,107.6136797,"-6.8939955,107.6136797"
82,RS Sariningsih Martadinata,ChIJHaeYXQjnaC4RE3xFVajIIac,"LLRE Martadinata St No.9, Citarum, Bandung Wetan, Bandung City, West Java 40115, Indonesia","hospital,point_of_interest,health,establishment",229,3.4,-6.9066427,107.6112205,"-6.9066427,107.6112205"
83,Sartika Asih Hospital,ChIJGXjSqfHoaC4R2YRE_C6goZU,"Jl. Moch. Toha No.369, Ciseureuh, Kec. Regol, Kota Bandung, Jawa Barat 40256, Indonesia","hospital,point_of_interest,health,establishment",578,3.7,-6.956532699999999,107.6125792,"-6.9565327,107.6125792"
84,Rumah Sakit Melinda 2,ChIJmfy4JUDmaC4RiwHvdXQl1_4,"Jl. Dr. Cipto No.1, Pasir Kaliki, Kec. Cicendo, Kota Bandung, Jawa Barat 40171, Indonesia","hospital,point_of_interest,health,establishment",1172,4.1,-6.9063167,107.5983705,"-6.9063167,107.5983705"
85,Ruang Fatimah - RS Santo Yusup Bandung,ChIJM3AFyb_naC4RojnP2XrsxJ0,"3JWV+6JC, Jl. Cikutra, Cikutra, Kec. Cibeunying Kidul, Kota Bandung, Jawa Barat 40124, Indonesia","hospital,point_of_interest,health,establishment",1,1.0,-6.9044396,107.6440062,"-6.9044396,107.6440062"
86,Rumah Sakit Umum Pindad Bandung,ChIJ1x3KqtfnaC4RNMKrUEhYTec,"Jl. Gatot Subroto No.517, Sukapura, Kec. Kiaracondong, Kota Bandung, Jawa Barat 40285, Indonesia","dentist,hospital,health,point_of_interest,establishment",478,3.9,-6.940032,107.6462231,"-6.940032,107.6462231"
87,Rumah Sakit Kebon Jati,ChIJU_KZChHmaC4RhL6i89vl5_g,"Jl. Kebon Jati No.152, Kb. Jeruk, Kec. Andir, Kota Bandung, Jawa Barat 40182, Indonesia","doctor,hospital,health,point_of_interest,establishment",446,2.3,-6.9161037,107.5963194,"-6.9161037,107.5963194"
88,Hermina Hospital Pasteur,ChIJd9Lo22XmaC4R1JL-X9GTkW0,"Jl. Dr. Djunjunan No.107, Pasteur, Kec. Cicendo, Kota Bandung, Jawa Barat 40173, Indonesia","hospital,health,point_of_interest,establishment",3059,4.5,-6.8958508,107.5888307,"-6.8958508,107.5888307"
89,Rumah Sakit Umum Daerah Bandung Kiwari - Kota Bandung,ChIJRZMqpQ_paC4RqbSvTPjNDQU,"Jl. Raya Kopo No.311, RT.03/RW.05, Situsaeur, Kec. Bojongloa Kidul, Kota Bandung, Jawa Barat 40233, Indonesia","hospital,health,point_of_interest,establishment",619,4.0,-6.9432643,107.5914246,"-6.9432643,107.5914246"
90,Rumah Sakit Di Bandung,ChIJncRyyhLlaC4RaOVGqMoqCNg,"4HCC+Q57, Setra Duta Raya, Ciwaruga, Kec. Cimahi Utara, Kabupaten Bandung Barat, Jawa Barat 40514, Indonesia","hospital,health,point_of_interest,establishment",1,1.0,-6.878088699999999,107.5704189,"-6.8780887,107.5704189"
91,Rumah Sakit Veteran,ChIJ5XeN2C3maC4R6zmzu6fdqaY,"Jalan Veteran No. 6, Kebon Pisang, Sumur Bandung, Kb. Pisang, Kec. Sumur Bandung, Kota Bandung, Jawa Barat 40113, Indonesia","hospital,health,point_of_interest,establishment",1,5.0,-6.9194264,107.6156944,"-6.9194264,107.6156944"
92,Rumah Sakit Angkatan Udara (RSAU) dr. M. Salamun,ChIJzajGNMLmaC4RDDtuCs_DLKI,"Jl. Ciumbuleuit No.203, Ciumbuleuit, Kec. Cidadap, Kota Bandung, Jawa Barat 40142, Indonesia","doctor,hospital,health,point_of_interest,establishment",2022,4.4,-6.8641692,107.604702,"-6.8641692,107.604702"
93,Rumah Sakit Ibu dan Anak Al Islam,ChIJNb2mzcbnaC4RdFFxWOW-b8g,"Jl. Awi Bitung No.29-31, Cicadas, Kec. Cibeunying Kidul, Kota Bandung, Jawa Barat 40121, Indonesia","hospital,health,point_of_interest,establishment",252,3.6,-6.9091979,107.6388016,"-6.9091979,107.6388016"
94,Halmahera Siaga Hospital,ChIJJXpkAUrmaC4R_lugSa7p93A,"LLRE Martadinata St No.28, Citarum, Bandung Wetan, Bandung City, West Java 40115, Indonesia","hospital,health,point_of_interest,establishment",254,4.1,-6.9067647,107.6157429,"-6.9067647,107.6157429"
95,East Wing RS Santosa Bandung,ChIJSYe2VDzmaC4R-iWHZiNsF4Q,"Jl. Kebon Jati No.32, Kb. Jeruk, Kec. Andir, Kota Bandung, Jawa Barat 40181, Indonesia","hospital,health,point_of_interest,establishment",2,5.0,-6.9154049,107.6008491,"-6.9154049,107.6008491"
96,Rumah sakit ujungberung,ChIJg9Yvi4zdaC4ROWRbZXY8IWE,"Jl. Rumah Sakit No.22, Pakemitan, Kec. Cinambo, Kota Bandung, Jawa Barat 40294, Indonesia","hospital,health,point_of_interest,establishment",31,1.8,-6.9157885,107.6990055,"-6.9157885,107.6990055"
97,Rumah Sakit Khusus Ginjal Ny. R.A. Habibie,ChIJsUMAwv_maC4RrUjDJPUCHdE,"Jl. Tubagus Ismail No.46, Sekeloa, Kecamatan Coblong, Kota Bandung, Jawa Barat 40134, Indonesia","hospital,health,point_of_interest,establishment",387,4.4,-6.885415399999999,107.6203514,"-6.8854154,107.6203514"
98,MEDICAL SCIENCE CENTER RSP UNPAD BANDUNG,ChIJnZgZZjbnaC4Rh3WwleXsAKw,"Gedung RSP UNPAD, Jl. Prof. Eyckman No.38, Pasteur, Kec. Sukajadi, Kota Bandung, Jawa Barat 40161, Indonesia","hospital,health,point_of_interest,establishment",3,5.0,-6.8957296,107.5988751,"-6.8957296,107.5988751"
99,Rumah Sakit Kartini Bandung,ChIJ64eVP6XnaC4R1qEbO2TOwGM,"Jl. Pahlawan No.48, Neglasari, Kec. Cibeunying Kaler, Kota Bandung, Jawa Barat 40124, Indonesia","hospital,doctor,health,point_of_interest,establishment",113,3.7,-6.897315000000001,107.6345952,"-6.897315,107.6345952"
100,Santosa Hospital Bandung Kopo,ChIJ5wY_MEECaS4RfrATTWCaZFs,"Jl. Raya Kopo No.461-463, Cirangrang, Kec. Babakan Ciparay, Kota Bandung, Jawa Barat 40227, Indonesia","hospital,health,point_of_interest,establishment",989,3.3,-6.9528156,107.586673,"-6.9528156,107.586673"
101,rumah sakit cijerah medika,ChIJV7lvlAnlaC4RAIjiEESeMc0,"Jl. Raya Cijerah No.41, Cijerah, Kec. Bandung Kulon, Kota Bandung, Jawa Barat 40213, Indonesia","hospital,health,point_of_interest,establishment",0,0.0,-6.9186215,107.5705025,"-6.9186215,107.5705025"
102,Hermina Arcamanik Hospital,ChIJZVNx4EbdaC4RmQ_3dXVtsus,"Jl. A.H. Nasution No.50, Antapani Wetan, Kec. Antapani, Kota Bandung, Jawa Barat 40291, Indonesia","hospital,health,point_of_interest,establishment",3639,4.4,-6.904909,107.666749,"-6.904909,107.666749"
103,dr. Riadi di Melinda Hospital,ChIJ1Y-baUDmaC4RjomNOOok4Os,"Jl. Pajajaran No.46, Pasir Kaliki, Kec. Cicendo, Kota Bandung, Jawa Barat 40171, Indonesia","hospital,health,point_of_interest,establishment",0,0.0,-6.906572,107.59979,"-6.906572,107.59979"
104,Rumah Sakit Sari Nengsih,ChIJByzzHkrmaC4RNBDZLQ5jOuk,"3JV8+C8P, LLRE Martadinata St, Citarum, Bandung Wetan, Bandung City, West Java 40115, Indonesia","hospital,health,point_of_interest,establishment",0,0.0,-6.9064103,107.6158421,"-6.9064103,107.6158421"
105,R.S Bungsu,ChIJ6-pgVn7naC4RGSp0h1yMzfE,"Jl. Naripan No.38, Kb. Pisang, Kec. Sumur Bandung, Kota Bandung, Jawa Barat 40112, Indonesia","hospital,health,point_of_interest,establishment",6,2.8,-6.9205812,107.6136795,"-6.9205812,107.6136795"
106,Mayapada Hospital Bandung (MHBD),ChIJWyUR1wzpaC4Ri6Re4Xaogek,"Jl. Terusan Buah Batu No.5, Batununggal, Kec. Bandung Kidul, Kota Bandung, Jawa Barat 40266, Indonesia","hospital,point_of_interest,health,establishment",339,4.8,-6.948580799999999,107.6347498,"-6.9485808,107.6347498"
107,Unit Gawat Darurat Rumah Sakit Bedah Halmahera Siaga,ChIJQyyCHUrmaC4RjSJYSxRaUko,"3JV8+87V, Citarum, Bandung Wetan, Bandung City, West Java 40115, Indonesia","hospital,point_of_interest,health,establishment",5,5.0,-6.9066353,107.6156595,"-6.9066353,107.6156595"
108,Rumah Sakit KCK Pindad,ChIJnffUpNfnaC4R7KoXgVpVsGk,"3JFJ+RG9, Jl. Gatot Subroto, Lkr. Sel., Kec. Lengkong, Kota Bandung, Jawa Barat, Indonesia","hospital,point_of_interest,health,establishment",0,0.0,-6.925456,107.63135,"-6.925456,107.63135"
109,Rumah Sakit Dharmapoetra H,ChIJRdmXixjoaC4RifEFHLcPjbo,"Jalan Margahayu Raya Barat VIII No. 20, Sekejati, Buahbatu, Sekejati, Kec. Buahbatu, Kota Bandung, Jawa Barat 40286, Indonesia","hospital,point_of_interest,health,establishment",0,0.0,-6.94581,107.660286,"-6.94581,107.660286"
110,Rumah Sakit Bersalin Astanaanyar,ChIJvQrJWyjmaC4RozSgABQRtcI,"Jl. Astana Anyar No.224, Cikawao, Kec. Lengkong, Kota Bandung, Jawa Barat 40242, Indonesia","hospital,point_of_interest,health,establishment",0,0.0,-6.925961,107.6117,"-6.925961,107.6117"
111,klinikk Anggrek RSHS Bandung,ChIJDUtfgjLmaC4Rm7dAPxfiEgk,"3JM9+2M3, Kebon Pisang, Sumurbandung, Bandung City, West Java 40112, Indonesia","hospital,point_of_interest,health,establishment",0,0.0,-6.917476499999999,107.6191593,"-6.9174765,107.6191593"
112,Klinik Sub Spesialis RS.Immanuel,ChIJ5_GniaLoaC4RmlfpKGQEHss,"Jl. Leuwi Panjang No.33, Situsaeur, Kec. Bojongloa Kidul, Kota Bandung, Jawa Barat 40234, Indonesia","hospital,point_of_interest,health,establishment",5,4.0,-6.9365903,107.5968827,"-6.9365903,107.5968827"
113,RSB Harapan Keluarga,ChIJA0imOLHpaC4ROtmruUVpLRs,"Jl. Pasir Salam No.6-8, Ancol, Kec. Regol, Kota Bandung, Jawa Barat 40254, Indonesia","hospital,point_of_interest,health,establishment",7,4.9,-6.9452772,107.6167616,"-6.9452772,107.6167616"
114,Rumah Sakit PTP VIII Yung Huhn,ChIJi4pq_lXmaC4RKKCNbf6m_R0,"Jl. Ir. H. Juanda No.107, Lebakgede, Kecamatan Coblong, Kota Bandung, Jawa Barat 40132, Indonesia","hospital,point_of_interest,health,establishment",0,0.0,-6.8870764,107.6157185,"-6.8870764,107.6157185"
115,RSIA Tedja,ChIJqTRl6krmaC4RxG7JBBU-i5k,"LLRE Martadinata St No.97, Citarum, Bandung Wetan, Bandung City, West Java 40115, Indonesia","hospital,point_of_interest,health,establishment",1,5.0,-6.905516599999999,107.6200671,"-6.9055166,107.6200671"
116,Dr. H. A. Rotinsulu Lung Hospital,ChIJt4Dr0e_maC4RGBh7VAt45MM,"Jl. Bukit Jarian No.40, Hegarmanah, Kec. Cidadap, Kota Bandung, Jawa Barat 40141, Indonesia","hospital,point_of_interest,health,establishment",389,3.9,-6.877633899999999,107.6065216,"-6.8776339,107.6065216"
117,RSJP Paramarta â€“ Rumah Sakit Khusus Jantung & Pembuluh Darah Paramarta Bandung,ChIJ44OAROXpaC4R8CYNnPLGUWs,"Jl. Soekarno Hatta No.581, Binong, Kec. Batununggal, Kota Bandung, Jawa Barat 40266, Indonesia","hospital,point_of_interest,health,establishment",77,4.7,-6.945653099999999,107.6405235,"-6.9456531,107.6405235"
118,Rumah Sakit Mata,ChIJmWFGlvHnaC4RdmCNsv54v-w,"4J33+CV4, Tamansari, Bandung Wetan, Bandung City, West Java 40116, Indonesia","hospital,point_of_interest,health,establishment",0,0.0,-6.8964823,107.6047023,"-6.8964823,107.6047023"
119,Caringin,ChIJ67iOZzrmaC4RNEKA7WZ7xOk,"Babakanciamis, Sumurbandung, Bandung City, West Java 40117, Indonesia","hospital,point_of_interest,health,establishment",1,5.0,-6.9148644,107.6082421,"-6.9148644,107.6082421"
120,RSMC,ChIJaxnSxzjmaC4RCLcGXQHXTxo,"Jl. Cicendo No.33, Babakan Ciamis, Kec. Cicendo, Kota Bandung, Jawa Barat 40171, Indonesia","hospital,point_of_interest,health,establishment",1,5.0,-6.910589499999999,107.6042602,"-6.9105895,107.6042602"
121,Rumah Sakit Jantung,ChIJuUkP1Cp5Ny4R4cmRwH8aIUk,"Jl. Tubagus Ismail VII No.21, Sekeloa, Kecamatan Coblong, Kota Bandung, Jawa Barat 40134, Indonesia","hospital,point_of_interest,health,establishment",40,5.0,-6.8827803,107.6191738,"-6.8827803,107.6191738"
122,Instalasi Radiologi RSKIA Kota Bandung,ChIJFSHazZ_oaC4RyTIa0lB67o0,"Jl. Astana Anyar No.156, Karanganyar, Kec. Astanaanyar, Kota Bandung, Jawa Barat 40241, Indonesia","hospital,point_of_interest,health,establishment",0,0.0,-6.9293288,107.6004712,"-6.9293288,107.6004712"
123,Pusat Medik RS. Immanuel,ChIJP8dsP6LoaC4RsO8Zso4nID0,"Jl. Raya Kopo No.161, Situsaeur, Kec. Bojongloa Kaler, Kota Bandung, Jawa Barat 40232, Indonesia","hospital,point_of_interest,health,establishment",44,3.9,-6.935912,107.5959899,"-6.935912,107.5959899"
124,Rumah Sakit Bersalin Emma Poeradiredja,ChIJyyaXNjHmaC4R0GV5S_kpFbU,"Jl. Sumatera No.46 - 48, Merdeka, Kec. Sumur Bandung, Kota Bandung, Jawa Barat 40113, Indonesia","hospital,point_of_interest,health,establishment",0,0.0,-6.912986,107.613875,"-6.912986,107.613875"
125,RS PTP VIII Yung Huhn,ChIJ67iOZzrmaC4RrzhVbEiSPTY,"3JP5+375, Jl. Pangkalan AU Sulaiman, Babakan Ciamis, Sumur Bandung, Babakan Ciamis, Kec. Sumur Bandung, Kota Bandung, Jawa Barat 40117, Indonesia","hospital,point_of_interest,health,establishment",0,0.0,-6.9148644,107.6082421,"-6.9148644,107.6082421"
126,Rencana Pembangunan RSKIA Kota Bandung,ChIJlbwL8rvoaC4RyPnftKGlNSo,"Jl. Raya Kopo No.311, Kopo, Kec. Bojongloa Kaler, Kota Bandung, Jawa Barat 40233, Indonesia","hospital,point_of_interest,health,establishment",5,4.6,-6.94339,107.5914505,"-6.94339,107.5914505"
127,Rumah Teduh Bandung,ChIJ5-hlIvLnaC4RPZBKNC96hyY,"4H4W+PVJ, Pasteur, Sukajadi, Bandung City, West Java 40161, Indonesia","hospital,point_of_interest,health,establishment",18,4.4,-6.89317,107.5971351,"-6.89317,107.5971351"
128,Dept. Ilmu Penyakit Dalam RSHS,ChIJN9y_r0LmaC4RdbIhaaadr4I,"Jl. Pasteur No.38, Pasteur, Kec. Sukajadi, Kota Bandung, Jawa Barat 40161, Indonesia","hospital,point_of_interest,health,establishment",2,3.0,-6.8983159,107.5984984,"-6.8983159,107.5984984"
129,Cicendo Eye Hospital,ChIJhV4z2jjmaC4RjOUUyBuLlxA,"Jl. Cicendo No.4, Babakan Ciamis, Kec. Sumur Bandung, Kota Bandung, Jawa Barat 40117, Indonesia","hospital,point_of_interest,health,establishment",987,4.0,-6.910090500000001,107.6047604,"-6.9100905,107.6047604"
130,IGD RS ADVENT,ChIJCbndIHznaC4R1tQ-kuTR06U,"4J53+783, Jl. Sampurna, Pasteur, Kec. Sukajadi, Kota Bandung, Jawa Barat 40161, Indonesia","hospital,point_of_interest,health,establishment",3,3.7,-6.891857799999999,107.6033004,"-6.8918578,107.6033004"
131,CMI HOSPITAL BANDUNG,ChIJiwkx4A3naC4RrAFv2Q3L2N8,"Jl. Tubagus Ismail VII No.21, Sekeloa, Kecamatan Coblong, Kota Bandung, Jawa Barat 40134, Indonesia","hospital,point_of_interest,health,establishment",19,5.0,-6.8827803,107.6191738,"-6.8827803,107.6191738"
132,"Dr Achmad Suardi, SP.Og, K-Onk",ChIJLUI0ql7maC4REM52pVXJB_k,"RS ADVENT, Jl. Cihampelas No.161, Cipaganti, Kecamatan Coblong, Kota Bandung, Jawa Barat 40131, Indonesia","hospital,health,point_of_interest,establishment",3,3.7,-6.891981,107.6031991,"-6.891981,107.6031991"
133,RS Wulandari,ChIJl072Q2jmaC4RBTaXGEyUl3w,"Jalan Jendral Gatot Subroto No. 31, Sukabungah, Sukajadi, Sukabungah, Kec. Sukajadi, Kota Bandung, Jawa Barat 40523, Indonesia","hospital,health,point_of_interest,establishment",0,0.0,-6.8994528,107.5959488,"-6.8994528,107.5959488"
134,RS Awal Bros Batam,ChIJQ3EhBGeJ2TERMbGOWg5ZJ2g,"Jl. Gajah Mada No.Kav. 1, Baloi Indah, Kec. Lubuk Baja, Kota Batam, Kepulauan Riau 29422, Indonesia","hospital,dentist,health,point_of_interest,establishment",2377,4.4,1.1236007,104.0165679,"1.1236007,104.0165679"
135,Budi Kemuliaan Hospital,ChIJj2PgjI-J2TER1sQEr0Up_vc,"Jl. Budi Kemuliaan No.1, Kp. Seraya, Kec. Lubuk Baja, Kota Batam, Kepulauan Riau 29483, Indonesia","hospital,health,point_of_interest,establishment",204,3.7,1.1477964,104.0188116,"1.1477964,104.0188116"
136,Harapan Bunda Hospital,ChIJU4XNeoWJ2TERZIwFpCDXI14,"Jalan Seraya No.1, Kp. Seraya, Kec. Batu Ampar, Kota Batam, Kepulauan Riau 29432, Indonesia","hospital,health,point_of_interest,establishment",232,3.2,1.1477646,104.0162246,"1.1477646,104.0162246"
137,Batam Regional Public Hospital,ChIJ37XMmRSN2TERI7glLYb3amo,"Jl. Letjend Suprapto No.1-9, Bukit Tempayan, Kec. Batu Aji, Kota Batam, Kepulauan Riau 29425, Indonesia","hospital,doctor,health,point_of_interest,establishment",75,3.7,1.0505504,103.9678105,"1.0505504,103.9678105"
138,RS Elisabeth Batam Kota,ChIJeVjiXraI2TERmeYiutjYvT8,"Jl. Raja Alikelana, Belian, Kec. Batam Kota, Kota Batam, Kepulauan Riau, Indonesia","hospital,health,point_of_interest,establishment",413,3.8,1.1071979,104.0798529,"1.1071979,104.0798529"
139,Keluarga Husada Hospital,ChIJQ4A17CeG2TERz00X46yQlgQ,"Komplek rukomas Odessa, Jl. Tengku Sulung, Belian, Batam Kota, Batam City, Riau Islands 29465, Indonesia","hospital,doctor,health,point_of_interest,establishment",818,4.6,1.1281658,104.1015721,"1.1281658,104.1015721"
140,Rumah Sakit BP Batam,ChIJczuCNTuL2TERuLwf-btecV0,"Jalan Dr. Cipto Mangunkusumo No.1, Tj. Pinggir, Kec. Sekupang, Kota Batam, Kepulauan Riau, Indonesia","hospital,health,point_of_interest,establishment",8,4.1,1.1299887,103.9320266,"1.1299887,103.9320266"
141,RS Awal Bros Botania Batam,ChIJ_Se74BCJ2TERLri0a0rh-s4,"Jl. Raja Alikelana Blok A No.8, Belian, Kec. Batam Kota, Kota Batam, Kepulauan Riau 29444, Indonesia","hospital,health,point_of_interest,establishment",31,4.7,1.1069458,104.0902102,"1.1069458,104.0902102"
142,RS. Santa Elisabeth Baloi Batam,ChIJUROv1X2J2TER2Gap3WkM3mw,"Jl. Anggrek, Lubuk Baja Kota, Kec. Lubuk Baja, Kota Batam, Kepulauan Riau 29444, Indonesia","hospital,health,point_of_interest,establishment",232,3.6,1.1357372,104.0152723,"1.1357372,104.0152723"
143,Rumah Sakit Otorita Batam,ChIJG9O82hGL2TERl5fURWVWuwk,"Jl. Dr. Ciptomangunkusumo No.1, Tj. Pinggir, Kec. Sekupang, Kota Batam, Kepulauan Riau, Indonesia","hospital,health,point_of_interest,establishment",276,4.2,1.1298738,103.9315451,"1.1298738,103.9315451"
144,RS.,ChIJ7ZtjS4WJ2TERQHAdD58yH9U,"42W9+VFH, Kampung Pelita, Lubuk Baja, Batam City, Riau Islands 29444, Indonesia","hospital,health,point_of_interest,establishment",0,0.0,1.1471823,104.0187206,"1.1471823,104.0187206"
145,Rumah Sakit Bhayangkara Batam,ChIJaxb1dcmH2TER9oH6H0oCe9c,"Jl. Dang Merdu No.KM. 2, Batu Besar, Kecamatan Nongsa, Kota Batam, Kepulauan Riau 29465, Indonesia","hospital,doctor,health,point_of_interest,establishment",57,4.1,1.1438439,104.1204548,"1.1438439,104.1204548"
146,Rumah Sakit Santa Elisabet,ChIJ_yVCF-iJ2TERS1wK34sc8fA,"434H+WW4, Jl. Raja Alikelana, Belian, Kec. Batam Kota, Kota Batam, Kepulauan Riau, Indonesia","hospital,health,point_of_interest,establishment",4,4.0,1.1072589,104.0798314,"1.1072589,104.0798314"
147,Graha Hermine Hospital,ChIJA6Ng55eN2TER-xfEFRJh_6U,"Komp. Ruko Asih Raya, Blok B Jl. Letjend Suprapto No.6 - 15, Buliang, Kec. Batu Aji, Kota Batam, Kepulauan Riau 29424, Indonesia","hospital,health,point_of_interest,establishment",225,3.4,1.0455771,103.9734341,"1.0455771,103.9734341"
148,Rumah Sakit St. Elisabeth Sei Lekop,ChIJf5EsYpyS2TERF4PQV8A3Wk4,"Jl. Utama Sei Binti, Sungai Lekop, Kec. Sagulung, Kota Batam, Kepulauan Riau 29432, Indonesia","hospital,health,point_of_interest,establishment",23,3.9,1.0236441,103.946014,"1.0236441,103.946014"
149,RS Camatha Sahidya,ChIJB9upB5KO2TER_2c7GlsPcIs,"Jalan Jendral Ahmad Yani No. 8 Kelurahan Muka Kuning, Kecamatan Sei Beduk, Kabil, Kecamatan Nongsa, Kota Batam, Kepulauan Riau 29433, Indonesia","hospital,doctor,health,point_of_interest,establishment",186,4.0,1.0737913,104.0251926,"1.0737913,104.0251926"
150,RS. Budi Rosari,ChIJ3_A9HsCJ2TER7bhuIUnziWI,"Mahkota, Blk. A Jl. Golden Prawn No.1, Bengkong Laut, Kec. Bengkong, Kota Batam, Kepulauan Riau 29458, Indonesia","hospital,health,point_of_interest,establishment",24,2.8,1.1582237,104.0305499,"1.1582237,104.0305499"
151,Rumah Sakit Budi Kemuliaan Batam,ChIJuf___7-O2TERwlhqtC0a6RM,"Jl. Budi Kemuliaan No.1, Kabil, Kecamatan Nongsa, Kota Batam, Kepulauan Riau 29444, Indonesia","hospital,health,point_of_interest,establishment",0,0.0,1.0828279,104.030453,"1.0828279,104.030453"
152,Rs. Jasmine Batam,ChIJCbR_RTeJ2TER9sjDr9JUt5o,"438W+49X, no.5_11, Jl. Raja M. Saleh komplek duta raya, Belian, Kec. Batam Kota, Kota Batam, Kepulauan Riau 29433, Indonesia","hospital,health,point_of_interest,establishment",20,4.8,1.1151554,104.0964756,"1.1151554,104.0964756"
153,RS Hj.Bunda Halimah,ChIJZ8vvGNmJ2TERhthEtCXDzd0,"Jl.Uniba no.A09, Kawasan Uniba Batam Center, Belian, Batam Kota, Batam City, Riau Islands 29433, Indonesia","hospital,health,point_of_interest,establishment",131,3.6,1.1069272,104.083128,"1.1069272,104.083128"
154,Medika Griya Batam,ChIJWd6Kez2J2TERw9lEqaTrYbk,"Komplek Mega Indah Blok A 3-4 & B 1-4, Jl. Laksamana Bintan, Sungai Panas, Kota Batam, Kepulauan Riau 29444, Indonesia","hospital,health,point_of_interest,establishment",90,3.7,1.1286435,104.0310962,"1.1286435,104.0310962"
155,RSUD Embung Fatimah,ChIJh-4P9KON2TERMKHThQXtRA8,"Blk. D1, Jalan Letjen R. Suprapto No.9, Bukit Tempayan, Kec. Batu Aji, Kota Batam, Kepulauan Riau 29425, Indonesia","hospital,health,point_of_interest,establishment",170,2.9,1.050374,103.9676461,"1.050374,103.9676461"
156,Rumah Sakit Otorita Batam Klinik Baloi,ChIJ4UQ5UHqJ2TERuQQfBfAyMBU,"Jl. Bunga Raya No.1, Baloi Indah, Kec. Lubuk Baja, Kota Batam, Kepulauan Riau 29444, Indonesia","hospital,health,point_of_interest,establishment",11,4.0,1.1320886,104.0164535,"1.1320886,104.0164535"
157,Rumah Sakit Casa Medical Centre,ChIJuf___7-O2TERQrjXJy7swxc,"Jl. Jend. A. Yani No.8, Kabil, Kecamatan Nongsa, Kota Batam, Kepulauan Riau 29444, Indonesia","hospital,health,point_of_interest,establishment",0,0.0,1.0828279,104.030453,"1.0828279,104.030453"
158,Women & Children's Hospital Aini Pearls,ChIJcVkQqpWN2TERfTocLxAzd3A,"Jalan Batu Aji 2 Blok A No.1, Buliang, Kec. Batu Aji, Kota Batam, Kepulauan Riau 29432, Indonesia","hospital,health,point_of_interest,establishment",134,3.8,1.0521388,103.9777251,"1.0521388,103.9777251"
159,Rumah Sakit Soedarsono Darmosoewito,ChIJbWRPdl6G2TER3CqdTCbNt5g,"Jalan Hang Kasturi II KM 4.5 Kabil, Batu Besar, Kecamatan Nongsa, Kota Batam, Kepulauan Riau 29467, Indonesia","hospital,doctor,health,point_of_interest,establishment",47,3.5,1.1204674,104.1407638,"1.1204674,104.1407638"
160,rumah sakit sejahtera mandiri,ChIJW85PtwyJ2TERZJ8CA-sDhQc,"42MJ+7F2, Panas River, Batam Kota, Batam City, Riau Islands 29444, Indonesia","hospital,health,point_of_interest,establishment",0,0.0,1.1331298,104.0311303,"1.1331298,104.0311303"
161,Unit Gawat Darurat dan Ambulans Rumah Sakit Awal Bros Batam,ChIJLxZ0XWaJ2TERXRNoxBdKsy8,"Baloi Indah, Lubuk Baja, Batam City, Riau Islands 29444, Indonesia","hospital,health,point_of_interest,establishment",4,5.0,1.1232589,104.0160578,"1.1232589,104.0160578"
162,RSIA KASIH SAYANG IBU,ChIJ4cHhNROJ2TERIazkhTj6LZA,"Jl. Raja H. Fisabilillah, Taman Baloi, Kec. Batam Kota, Kota Batam, Kepulauan Riau 29444, Indonesia","hospital,health,point_of_interest,establishment",71,3.4,1.1256313,104.0309267,"1.1256313,104.0309267"
163,ECO GREEN REGIONAL PUBLIC HOSPITAL - Batam - Riau Islands,ChIJRVZEh_-T2TERiwLpvpHxnTg,"2WCW+H23, Lekop River, Street, Batam City, Riau Islands 29439, Indonesia","hospital,health,point_of_interest,establishment",0,0.0,1.0213777,103.9450368,"1.0213777,103.9450368"
164,Mushala Rs Budi Kemuliaan,ChIJMeH2_o-J2TERCjx14sI5C2U,"42X9+8C5, Kampung Pelita, Lubuk Baja, Batam City, Riau Islands 29444, Indonesia","hospital,health,point_of_interest,establishment",4,4.8,1.1482636,104.0186111,"1.1482636,104.0186111"
165,RSIA Frisdhy Angel,ChIJnwDACoKJ2TER6EF73OHOWcI,"Jl. Raden Patah No.1-3, Lubuk Baja Kota, Kec. Lubuk Baja, Kota Batam, Kepulauan Riau 29444, Indonesia","hospital,health,point_of_interest,establishment",52,3.9,1.1371669,104.0159503,"1.1371669,104.0159503"
166,Adhitiya Nisa Karya. PT,ChIJratXAQOJ2TERmeRp0alU6d0,"43J2+G5W, Teluk Tering, Batam Kota, Batam City, Riau Islands 29444, Indonesia","hospital,health,point_of_interest,establishment",1,4.0,1.1313556,104.0504632,"1.1313556,104.0504632"
167,Rumah Sakit Ibu dan Anak Nuruddiniyah,ChIJt-ZPqGCO2TER3GL9FTF7nt8,"326J+248, Jl. Raya, Sei Panas, Nongsa, Batam City, Riau Islands 29444, Indonesia","hospital,health,point_of_interest,establishment",0,0.0,1.060042,104.030319,"1.060042,104.030319"
168,RS. Charis Medika batu aji,ChIJR3rVCuyN2TERJCQzjZ60xrc,"Komplek Muka Kuning Paradise Blok D 1-9, Jl. Letjen R. Suprapto No.9, Bukit Tempayan, Kec. Batu Aji, Kota Batam, Kepulauan Riau 29425, Indonesia","hospital,health,point_of_interest,establishment",23,3.9,1.0573184,103.9643434,"1.0573184,103.9643434"
169,Batam Medical Centre,ChIJSSsYeIKJ2TERDt_ufni9ktU,"Komplek Libra Centre Blok A/C No. 7-9, Jl. Raden Patah, Lubuk Baja Kota, Lubuk Baja, Batam City, Riau Islands 29443, Indonesia","hospital,doctor,health,point_of_interest,establishment",64,4.4,1.1388776,104.0153765,"1.1388776,104.0153765"
170,Rumah Sakit Bersalin Yayasan Asih Batam,ChIJd4R0c5aL2TERJ_5PAfY7-pc,"Komplek Tiban Blok AA No. 6, JL Gajah Madas, Tanjung Uma, Sekupang, Tiban Indah, Kec. Sekupang, Kota Batam, Kepulauan Riau, Indonesia","hospital,health,point_of_interest,establishment",1,5.0,1.1176267,103.9772151,"1.1176267,103.9772151"
171,RS Mutiara Aini,ChIJrTCbeRSN2TERMQK6vmSMeGo,"Batu Aji Batam, Buliang, Kec. Batu Aji, Kota Batam, Kepulauan Riau, Indonesia","hospital,health,point_of_interest,establishment",1,5.0,1.0521193,103.9776087,"1.0521193,103.9776087"
172,RSKI Galang,ChIJKzZ_fMyn2TERK1wPeJN__ss,"P6W3+RH8, Jl. Trans Barelang, Sijantung, Galang, Kota Batam, Kepulauan Riau 29485, Indonesia","hospital,health,point_of_interest,establishment",10,3.8,0.7470488,104.2039423,"0.7470488,104.2039423"
173,RSIA Mutiara Aini,ChIJaVZVVRWO2TERCM8F0vIuQH4,"22WJ+754, Kabil, Batu Aji, Batam City, Riau Islands, Indonesia","hospital,health,point_of_interest,establishment",0,0.0,1.045625,104.030453,"1.045625,104.030453"
174,Bp Merah Delima,ChIJHZMAmw-L2TEREcfT04Dsco4,"4X6M+8RF, Jl. Tiban Lama, Tiban Lama, Kec. Sekupang, Kota Batam, Kepulauan Riau 29424, Indonesia","hospital,health,point_of_interest,establishment",1,4.0,1.1108163,103.9845418,"1.1108163,103.9845418"
175,klinik harapan kita puri lagenda,ChIJG-mwHdKI2TERLMN_VL3J3Rg,"Jl. Raja Isa, Baloi Permai, Kec. Batam Kota, Kota Batam, Kepulauan Riau 29431, Indonesia","hospital,health,point_of_interest,establishment",43,2.0,1.1078509,104.0629831,"1.1078509,104.0629831"
176,Perwakilan KPJ Johor,ChIJD-a47AaL2TER8qLMcAMgezM,"4X38+H2V, Jl. Tiban Palem, Tiban Baru, Kec. Sekupang, Kota Batam, Kepulauan Riau 29424, Indonesia","hospital,health,point_of_interest,establishment",0,0.0,1.1039846,103.9650365,"1.1039846,103.9650365"
177,Rumah Bersalin & Balai Pengobatan Klinik Mtra Buda Baloi Cstre,ChIJk_CIg8qL2TERR_qJIeNwb20,"RT. II RW. III Blok. D No. 9 Baloi Centre, Baloi Indah, Kec. Lubuk Baja, Kota Batam, Kepulauan Riau, Indonesia","hospital,health,point_of_interest,establishment",0,0.0,1.1320127,104.0071299,"1.1320127,104.0071299"
178,Klinik Spesialis,ChIJvUKEXWaJ2TERhXqxLv_mnp8,"42F8+9JV, Baloi Indah, Lubuk Baja, Batam City, Riau Islands 29444, Indonesia","hospital,health,point_of_interest,establishment",3,5.0,1.1234997,104.016562,"1.1234997,104.016562"
179,Kasa Medical Centre,ChIJxVhgT7uJ2TERizsEWKAEsp8,"JL. Raja Ali Haji, Komplek Jodoh Trade Centre B/6, Sadai, Kec. Bengkong, Kota Batam, Kepulauan Riau 29444, Indonesia","hospital,health,point_of_interest,establishment",1,3.0,1.1485535,104.0372012,"1.1485535,104.0372012"
180,Klinik Utama RISIO,ChIJy3p3eoaP2TERvCMpFNUEt6Y,"Ruko KDA Junction Blok E no 7 - 9, Kota Batam, Kepulauan Riau 29464, Indonesia","hospital,health,point_of_interest,establishment",0,0.0,1.1026897,104.0762328,"1.1026897,104.0762328"
181,KLINIK PRATAMA RUMKITBAN 01.08.03 BATAM,ChIJ5cosrVWJ2TERQiai8-eOWQU,"524G+V7C, Bengkong Laut, Bengkong, Batam City, Riau Islands 29444, Indonesia","hospital,health,point_of_interest,establishment",29,4.4,1.1571839,104.0256278,"1.1571839,104.0256278"
182,.,ChIJXff1vsiO2TERctlvfmkNXQE,"Sukajadi, Batam Kota, Batam City, Riau Islands 29433, Indonesia","hospital,health,point_of_interest,establishment",69,4.3,1.0930695,104.0346227,"1.0930695,104.0346227"
183,Poliklinik Spesialis THT,ChIJrc8HTTuL2TEROScWMegqZpM,"4WHJ+W8M, Tanjung Pinggir, Sekupang, Batam City, Riau Islands, Indonesia","hospital,health,point_of_interest,establishment",2,4.0,1.1298395,103.9308063,"1.1298395,103.9308063"
184,klinik bersalin BIDAN SRI,ChIJIaOicnWJ2TERSVfivZgNIes,"claster hang kesturi, Baloi Permai, Kec. Batam Kota, Kota Batam, Kepulauan Riau 29444, Indonesia","hospital,health,point_of_interest,establishment",0,0.0,1.1083614,104.0578603,"1.1083614,104.0578603"
185,Poliklinik Urologi,ChIJe-nJVnqJ2TERAC3KmOwxIKU,"Jl. Bunga Raya No.1, Baloi Indah, Kec. Lubuk Baja, Kota Batam, Kepulauan Riau 29444, Indonesia","hospital,health,point_of_interest,establishment",1,4.0,1.1320306,104.0163495,"1.1320306,104.0163495"
186,KSI,ChIJG1eaoY-J2TERZBimpPkNPTQ,"42FM+R8J, Unnamed Road, Tlk. Tering, Kec. Batam Kota, Kota Batam, Kepulauan Riau 29444, Indonesia","hospital,health,point_of_interest,establishment",0,0.0,1.124589,104.033264,"1.124589,104.033264"
187,Maternity Home Ananda,ChIJpZtRcqWI2TERiKjrcPxQee4,"JL Abulyatama Batam Centre Komplek City Garden Blok B No. 9, Belian, Batam Kota, Batam City, Riau Islands 29433, Indonesia","hospital,health,point_of_interest,establishment",0,0.0,1.1115763,104.0911658,"1.1115763,104.0911658"
188,Poliklinik Spesialis Jantung dan Pembuluh Darah,ChIJSen_U3qJ2TERxi0agT0Z9lY,"Jl. Bunga Raya No.1, Baloi Indah, Kec. Lubuk Baja, Kota Batam, Kepulauan Riau 29444, Indonesia","hospital,health,point_of_interest,establishment",0,0.0,1.1320306,104.0163495,"1.1320306,104.0163495"
189,Klinik Mitra Bunda,ChIJqSPuk8WJ2TERVGhDpQxa0xI,"Jl. Teratai, Baloi Indah, Kec. Lubuk Baja, Kota Batam, Kepulauan Riau, Indonesia","hospital,health,point_of_interest,establishment",28,4.8,1.1321082,104.0046068,"1.1321082,104.0046068"
190,Klinik Utama Saffira Sentra Medika,ChIJWWeX3rSN2TERpavrkA-xgbE,"Buana centra park, Kibing, Kec. Batu Aji, Kota Batam, Kepulauan Riau 29424, Indonesia","pharmacy,hospital,store,health,point_of_interest,establishment",28,4.9,1.0507075,104.0044703,"1.0507075,104.0044703"
191,Gedung Bersalin,ChIJHy3XoZaF2TERCZMeKo43-0o,"294667Batam, Kabil, Kecamatan Nongsa, Kota Batam, Kepulauan Riau 29467, Indonesia","hospital,health,point_of_interest,establishment",2,3.5,1.0775826,104.1189708,"1.0775826,104.1189708"
192,KPJ Appointment,ChIJ0eZX0H6J2TER4BDh7PDt_1U,"5285+RW8, Jl. Tenggiri, Batu Merah, Kec. Batu Ampar, Kota Batam, Kepulauan Riau 29444, Indonesia","hospital,health,point_of_interest,establishment",0,0.0,1.1670378,104.0098277,"1.1670378,104.0098277"
193,"Praktek Mandiri dr. Sarita Miguna, Sp.A",ChIJX9coJVuJ2TERE7L2zfyV6TM,"Komplek Ruko The Summer, Jl. Raja Isa No.5, Tlk. Tering, Kec. Batam Kota, Kota Batam, Kepulauan Riau 29461, Indonesia","hospital,health,point_of_interest,establishment",1,5.0,1.1220789,104.0571906,"1.1220789,104.0571906"
194,RSB KASIH SAYANG IBU,ChIJL5EfgnaJ2TERPaoq2TwRmrs,"Komp. Ruko Palm Spring, Jl. Raja H. Fisabilillah, Taman Baloi, Kec. Batam Kota, Kota Batam, Kepulauan Riau 29444, Indonesia","hospital,health,point_of_interest,establishment",0,0.0,1.1256538,104.0308572,"1.1256538,104.0308572"
195,Bunda Maternity Hospital,ChIJMwjA6kqJ2TER5X3mn4YqO4M,"Ruko Famiy Dream, JL Jenderal Sudirman, Blok AE No. 10, Sukajadi, Kec. Batam Kota, Kota Batam, Kepulauan Riau 29444, Indonesia","hospital,health,point_of_interest,establishment",0,0.0,1.102685,104.028915,"1.102685,104.028915"
196,Rehabhatipunggurkepri,ChIJZyvrJC6F2TERXvdiJgQtfLo,"kampung panau punggur, kecamatan Nongsa kelurahan kabil no. 03, 085278315545, Kecamatan Nongsa, Kota Batam, Kepulauan Riau 29467, Indonesia","hospital,health,point_of_interest,establishment",0,0.0,1.0883495,104.1330297,"1.0883495,104.1330297"
197,Pondok Bersalin Desa Teluk Mata Ikan,ChIJkwrs4f0p2jERYNNkGIOyD_8,"54P6+XV4, Sambau, Nongsa, Batam City, Riau Islands, Indonesia","hospital,health,point_of_interest,establishment",1,5.0,1.1873878,104.1122039,"1.1873878,104.1122039"
198,Klinik dan Apotek Fels Medika,ChIJ-W_DAtmJ2TERmnV7fdw1HHc,"Ruko Mega Legenda 2 Blok B1 No. 03, Kota Batam, Kepulauan Riau 29431, Indonesia","hospital,health,point_of_interest,establishment",8,5.0,1.1021523,104.0612116,"1.1021523,104.0612116"
199,Poliklinik Spesialis Bedah,ChIJdZI-TTuL2TER5TE5-ISkzsc,"4WHJ+W8M, Tanjung Pinggir, Sekupang, Batam City, Riau Islands, Indonesia","hospital,health,point_of_interest,establishment",0,0.0,1.1298393,103.9308053,"1.1298393,103.9308053"
200,Klinik Permata Hati,ChIJn43ra0uJ2TERrElfTNetv5E,"42M8+478, Lubuk Baja Kota, Lubuk Baja, Batam City, Riau Islands 29444, Indonesia","hospital,health,point_of_interest,establishment",8,4.1,1.132785,104.0156973,"1.132785,104.0156973"
201,Rosa Anugrah Utama,ChIJ7ftnR-uJ2TERER25OV1LBS0,"Bengkong Shopping Centre, Blok D, No. 4, Batam, Bengkong Laut, Bengkong, Batam City, Riau Islands 29444, Indonesia","hospital,health,point_of_interest,establishment",2,3.0,1.158155,104.026056,"1.158155,104.026056"
202,Klinik Batam Sehat,ChIJwZGqCqOI2TERRPyUjId1ZxA,"438R+GHF, Belian, Batam Kota, Batam City, Riau Islands 29433, Indonesia","hospital,health,point_of_interest,establishment",0,0.0,1.1163223,104.0914165,"1.1163223,104.0914165"
203,Berobat ke Malaysia,ChIJHZ-hFGKL2TER6CPh8MjNz0c,"5243+C6Q, Jl. Komp. Orchid Mas, Sungai Jodoh, Kec. Batu Ampar, Kota Batam, Kepulauan Riau, Indonesia","hospital,health,point_of_interest,establishment",0,0.0,1.1560805,104.0031013,"1.1560805,104.0031013"
204,Jakarta Hospital,ChIJKcinQFXxaS4RFUdJXOSVpLk,"Jl. Jend. Sudirman No.Kav 49, RT.5/RW.4, Karet Semanggi, Kecamatan Setiabudi, Kota Jakarta Selatan, Daerah Khusus Ibukota Jakarta 12930, Indonesia","hospital,doctor,health,point_of_interest,establishment",743,4.0,-6.2182371,106.8161788,"-6.2182371,106.8161788"
205,Tarakan Regional General Hospital,ChIJj4e7i3v2aS4RrelAlH_dyI8,"Jl. Kyai Caringin No.7, RT.11/RW.4, Cideng, Kecamatan Gambir, Kota Jakarta Pusat, Daerah Khusus Ibukota Jakarta 10150, Indonesia","hospital,health,point_of_interest,establishment",1950,3.9,-6.1718315,106.8103201,"-6.1718315,106.8103201"
206,Puri Medika Hospital,ChIJ3c0LpuAfai4Rwj4l2Woh9Dw,"Jl. Sungai Bambu No.5, RT.5/RW.9, Sungai Bambu, Kec. Tj. Priok, Jkt Utara, Daerah Khusus Ibukota Jakarta 14330, Indonesia","hospital,doctor,health,point_of_interest,establishment",541,3.5,-6.1289453,106.8902219,"-6.1289453,106.8902219"
207,RS. KHUSUS BEDAH HALIMUN (IGD 24 JAM),ChIJU5yRJQ70aS4R-ySxot8VIcc,"Jl. Halimun Raya No.9, RT.8/RW.2, Guntur, Kecamatan Setiabudi, Kota Jakarta Selatan, Daerah Khusus Ibukota Jakarta 12980, Indonesia","hospital,doctor,health,point_of_interest,establishment",67,4.6,-6.2063092,106.8339052,"-6.2063092,106.8339052"
208,RS Kramat 128,ChIJdwpdY0j0aS4RCYEnOei23J0,"Jl. Kramat Raya No.128, RT.1/RW.8, Kenari, Kec. Senen, Kota Jakarta Pusat, Daerah Khusus Ibukota Jakarta 10430, Indonesia","hospital,health,point_of_interest,establishment",277,3.9,-6.1855402,106.8440879,"-6.1855402,106.8440879"
209,Radjak Hospital Salemba,ChIJc8ke30L0aS4Rn_sEBkQeyhY,"Jl. Salemba Tengah No.24-28, Paseban, Kec. Senen, Kota Jakarta Pusat, Daerah Khusus Ibukota Jakarta 10440, Indonesia","hospital,health,point_of_interest,establishment",1613,4.2,-6.1936839,106.8520944,"-6.1936839,106.8520944"
210,Abdi Waluyo Hospital,ChIJv170zST0aS4RFrrR6kjFJ5k,"Jl. HOS. Cokroaminoto No.31-33, RT.1/RW.3, Gondangdia, Kec. Menteng, Kota Jakarta Pusat, Daerah Khusus Ibukota Jakarta 10350, Indonesia","hospital,doctor,health,point_of_interest,establishment",1182,4.4,-6.1898084,106.8292816,"-6.1898084,106.8292816"
211,St. Carolus Hospital,ChIJUXRwJGj0aS4RheHK-ifoIKg,"Jl. Salemba Raya No.41, RT.3/RW.5, Paseban, Kec. Senen, Kota Jakarta Pusat, Daerah Khusus Ibukota Jakarta 10440, Indonesia","hospital,dentist,health,point_of_interest,establishment",1153,3.9,-6.1955107,106.8513711,"-6.1955107,106.8513711"
212,RS Cikini,ChIJXc-qsUD0aS4RbMAHTJ3Bpjw,"Jl. Raden Saleh Raya No.40, RT.12/RW.2, Cikini, Kec. Menteng, Kota Jakarta Pusat, Daerah Khusus Ibukota Jakarta 10330, Indonesia","hospital,health,point_of_interest,establishment",19,3.8,-6.1914813,106.842062,"-6.1914813,106.842062"
213,Bunda Hospital Jakarta,ChIJz8Otij70aS4RDIgTUzBVt1k,"Jl. Teuku Cik Ditiro No.21, RT.9/RW.2, Gondangdia, Kec. Menteng, Kota Jakarta Pusat, Daerah Khusus Ibukota Jakarta 10350, Indonesia","hospital,health,point_of_interest,establishment",338,3.6,-6.1959424,106.8369665,"-6.1959424,106.8369665"
214,Patria Hospital IKKT,ChIJHac6o-r2aS4ROAwWAwjB0O8,"Komplek Kemhan TNI Slipi, Kel, Jl. Cendrawasih No.1, RT.5/RW.2, Palmerah, Kec. Palmerah, Kota Jakarta Barat, Daerah Khusus Ibukota Jakarta 11480, Indonesia","hospital,health,point_of_interest,establishment",337,3.1,-6.197076699999999,106.7926812,"-6.1970767,106.7926812"
215,Tria Dipa Hospital,ChIJbatNN7bzaS4RfVTeN5WgAA4,"Jl. Raya Pasar Minggu No.3A, RT.4/RW.1, Pancoran, Kec. Pancoran, Kota Jakarta Selatan, Daerah Khusus Ibukota Jakarta 12780, Indonesia","hospital,health,point_of_interest,establishment",302,3.3,-6.2508174,106.8418891,"-6.2508174,106.8418891"
216,RSUP Persahabatan,ChIJy0pyGJf0aS4RAHLjCH8B1uc,"Jl. Persahabatan Raya No.1, RT.16/RW.13, Rawamangun, Kec. Pulo Gadung, Kota Jakarta Timur, Daerah Khusus Ibukota Jakarta 13230, Indonesia","hospital,doctor,health,point_of_interest,establishment",1282,3.1,-6.2026942,106.8851868,"-6.2026942,106.8851868"
217,RS Khusus Bedah Rawamangun,ChIJO6d45JT0aS4R-QVHxDUUUeI,"Jl. Balai Pustaka No.29 - 31, RT.6/RW.15, Rawamangun, Kec. Pulo Gadung, Kota Jakarta Timur, Daerah Khusus Ibukota Jakarta 13220, Indonesia","hospital,health,point_of_interest,establishment",190,3.4,-6.1963893,106.8855167,"-6.1963893,106.8855167"
218,Rumah Sehat Untuk Jakarta RSUD Kebayoran Baru,ChIJgzwdFJnxaS4R1SWntNhIF1k,"Jl. Abdul Majid Raya No.28, Cipete Utara, Kec. Kby. Baru, Kota Jakarta Selatan, Daerah Khusus Ibukota Jakarta 12150, Indonesia","hospital,doctor,health,point_of_interest,establishment",430,4.1,-6.2655199,106.7986675,"-6.2655199,106.7986675"
219,Medistra Hospital,ChIJ4zXhycPzaS4RK9V7xBws5Rs,"Jl. Gatot Subroto No.59, RT.1/RW.4, Kuningan Tim., Kecamatan Setiabudi, Kota Jakarta Selatan, Daerah Khusus Ibukota Jakarta 12950, Indonesia","hospital,doctor,health,point_of_interest,establishment",830,4.0,-6.2397217,106.8338307,"-6.2397217,106.8338307"
220,"Tebet Regional Public Hospital, South Jakarta",ChIJBwh0-ZPzaS4RZklxwl4HmGY,"Jl. Prof. DR. Soepomo SH No.54, RT.13/RW.2, Tebet Bar., Kec. Tebet, Kota Jakarta Selatan, Daerah Khusus Ibukota Jakarta 12810, Indonesia","hospital,doctor,health,point_of_interest,establishment",544,3.6,-6.2316972,106.8466389,"-6.2316972,106.8466389"
221,RSUD Sawah Besar,ChIJ4Wv99eX1aS4RtM5Cd-5AYD0,"Jl. Dwiwarna Raya No.6-8, RT.15/RW.9, Karang Anyar, Kecamatan Sawah Besar, Kota Jakarta Pusat, Daerah Khusus Ibukota Jakarta 10740, Indonesia","hospital,health,point_of_interest,establishment",218,3.6,-6.148940199999999,106.8298665,"-6.1489402,106.8298665"
222,Jakarta Islamic Hospital,ChIJK4EdVwH1aS4Rz1YAnN1gOA0,"Jl. Cemp. Putih Tengah I Jl. Cempaka Putih Tengah XXX No.1, RT.11/RW.5, Cemp. Putih Tim., Kec. Cemp. Putih, Kota Jakarta Pusat, Daerah Khusus Ibukota Jakarta 10510, Indonesia","hospital,health,point_of_interest,establishment",1150,4.0,-6.1706772,106.8708824,"-6.1706772,106.8708824"
223,Columbia Asia Hospital Pulomas,ChIJCfObQCD1aS4RzpAZ6ShUrYA,"Jl. Kayu Putih Raya No.1, RW.16, Kayu Putih, Kec. Pulo Gadung, Kota Jakarta Timur, Daerah Khusus Ibukota Jakarta 13210, Indonesia","hospital,health,point_of_interest,establishment",1477,4.3,-6.1821006,106.8912829,"-6.1821006,106.8912829"
224,Royal Taruma Hospital,ChIJy3ic4UT2aS4RhvAwLfCCuY8,"Jl. Daan Mogot No.34, RW.1, Tj. Duren Utara, Kec. Grogol petamburan, Kota Jakarta Barat, Daerah Khusus Ibukota Jakarta 11470, Indonesia","hospital,doctor,point_of_interest,health,establishment",839,3.7,-6.1664004,106.7855103,"-6.1664004,106.7855103"
225,Rumah Sakit Ibu dan Anak Al-Fauzan,ChIJHeD_a37taS4RJnrgVG4Es8w,"Jl. Pedati No.3, RT.5/RW.7, Kp. Tengah, Kec. Kramat jati, Kota Jakarta Timur, Daerah Khusus Ibukota Jakarta 13540, Indonesia","hospital,point_of_interest,health,establishment",71,4.1,-6.2997804,106.8693534,"-6.2997804,106.8693534"
226,Budi Kemuliaan Hospital,ChIJjTfw6Rn1aS4RaUywvPLbdq0,"Jl. Budi Kemuliaan No.25, RT.2/RW.3, Gambir, Kecamatan Gambir, Kota Jakarta Pusat, Daerah Khusus Ibukota Jakarta 10110, Indonesia","hospital,point_of_interest,health,establishment",612,4.2,-6.1806975,106.8182917,"-6.1806975,106.8182917"
227,Rumah Sakit Gandaria,ChIJTfNuiBPxaS4RjITwwJ1SEAk,"Jl. Gandaria Tengah II No.6, RW.1, Kramat Pela, Kec. Kby. Baru, Kota Jakarta Selatan, Daerah Khusus Ibukota Jakarta 12130, Indonesia","hospital,point_of_interest,health,establishment",205,3.4,-6.244013100000001,106.790662,"-6.2440131,106.790662"
228,Rs Johar baru tanah tinggi Jakarta pusat,ChIJd9GSzQ_1aS4RiJXrdpWH9mo,"Jl. Tanah Tinggi XII No.15, RT.5/RW.9, Tanah Tinggi, Johar Baru, Central Jakarta City, Jakarta 10540, Indonesia","hospital,point_of_interest,health,establishment",4,2.5,-6.181593899999999,106.8512996,"-6.1815939,106.8512996"
229,Murni Teguh Sudirman Jakarta Hospital,ChIJVw7R9QL0aS4R_szQgffxhnc,"Kawasan Sahid City, Jl. Jenderal Sudirman No.86, RW.11, Karet Tengsin, Kecamatan Tanah Abang, Kota Jakarta Pusat, Daerah Khusus Ibukota Jakarta 10220, Indonesia","hospital,point_of_interest,health,establishment",215,4.0,-6.2095398,106.8194704,"-6.2095398,106.8194704"
230,Dr. Mintohardjo Naval Hospital,ChIJFVFBM6n2aS4RszwE2G1zn2E,"4, Jl. Bendungan Hilir No.17, RT.4/RW.3, Bend. Hilir, Kecamatan Tanah Abang, Kota Jakarta Pusat, Daerah Khusus Ibukota Jakarta 10210, Indonesia","hospital,point_of_interest,health,establishment",525,3.6,-6.21092,106.81201,"-6.21092,106.81201"
231,Rumah Sakit YPK Mandiri,ChIJubzVniT0aS4RoMsPZVv3raI,"22, Jl. Gereja Theresia No.22, RT.7/RW.4, Gondangdia, Kec. Menteng, Kota Jakarta Pusat, Daerah Khusus Ibukota Jakarta 10350, Indonesia","hospital,point_of_interest,health,establishment",341,4.2,-6.191368700000001,106.827903,"-6.1913687,106.827903"
232,RSUD Cempaka Putih,ChIJzzoqCvr0aS4RxmiOb4s9ffc,"Jl. Rawasari Sel. No.1, RT.16/RW.2, Cemp. Putih Tim., Kec. Cemp. Putih, Kota Jakarta Pusat, Daerah Khusus Ibukota Jakarta 10510, Indonesia","hospital,doctor,point_of_interest,health,establishment",327,3.6,-6.1847813,106.8724572,"-6.1847813,106.8724572"
233,MMC Hospital,ChIJsdC_blXxaS4Rc1KlN69LkPU,"Metropolitan Medical Centre, Jl. H. R. Rasuna Said No.C-21, RT.1/RW.7, Karet Kuningan, Kecamatan Setiabudi, Kota Jakarta Selatan, Daerah Khusus Ibukota Jakarta 12940, Indonesia","hospital,point_of_interest,health,establishment",438,4.1,-6.219863699999999,106.8323987,"-6.2198637,106.8323987"
234,RSUD Tanah Abang,ChIJSalmNJz2aS4RY9HMtNuWW08,"Jl. K.H. Mas Mansyur No.30, RT.5/RW.7, Kb. Kacang, Kecamatan Tanah Abang, Kota Jakarta Pusat, Daerah Khusus Ibukota Jakarta 10240, Indonesia","hospital,point_of_interest,health,establishment",247,4.3,-6.190887,106.814577,"-6.190887,106.814577"
235,Mother and Child Hospital Budhi Jaya,ChIJSRn4UorzaS4REgUUFivmf84,"Jl. Dr. Saharjo No.120, RT.1/RW.8, Menteng Atas, Kecamatan Setiabudi, Kota Jakarta Selatan, Daerah Khusus Ibukota Jakarta 12960, Indonesia","hospital,point_of_interest,health,establishment",144,3.9,-6.218895900000001,106.8450804,"-6.2188959,106.8450804"
236,Rumah Sakit Anggrek Mas,ChIJAQeo73v3aS4Rll58W742WwE,"Jl. Anggrek No.2B, RT.9/RW.2, Klp. Dua, Kec. Kb. Jeruk, Kota Jakarta Barat, Daerah Khusus Ibukota Jakarta 11550, Indonesia","hospital,point_of_interest,health,establishment",459,4.1,-6.2030719,106.7726612,"-6.2030719,106.7726612"
237,RUMAH SAKIT TEBET,ChIJ2z2Ax6vzaS4RqdRGpmz9LIU,"MT Haryono St No.Kav.13, West Tebet, Tebet, South Jakarta City, Jakarta 12810, Indonesia","dentist,hospital,point_of_interest,health,establishment",1717,4.7,-6.242804899999999,106.8501878,"-6.2428049,106.8501878"
238,Rumah Sakit Agung,ChIJsTXefXH0aS4RAO9LnfuVHvQ,"Jl. Sultan Agung No.67, RT.1/RW.8, Ps. Manggis, Kecamatan Setiabudi, Kota Jakarta Selatan, Daerah Khusus Ibukota Jakarta 12970, Indonesia","hospital,point_of_interest,health,establishment",490,3.1,-6.209101899999999,106.8464209,"-6.2091019,106.8464209"
239,Pasar Rebo Regional General Hospital,ChIJUx0VJILtaS4RDHY8DuB2dpQ,"Jl. TB Simatupang No.30, RT.9/RW.2, Gedong, Kec. Ps. Rebo, Kota Jakarta Timur, Daerah Khusus Ibukota Jakarta 13760, Indonesia","hospital,point_of_interest,health,establishment",2428,4.2,-6.3035748,106.8620939,"-6.3035748,106.8620939"
240,Primaya Evasari Hospital,ChIJKQlvZV70aS4Rq198Z8HqnRc,"Jl. Rawamangun No.47, RW.3, Rawasari, Kec. Cemp. Putih, Kota Jakarta Pusat, Daerah Khusus Ibukota Jakarta 10570, Indonesia","hospital,point_of_interest,health,establishment",685,4.2,-6.1935465,106.8597841,"-6.1935465,106.8597841"
241,Mediros Hospital,ChIJdSzw0dD0aS4RCRcjYrQEH_o,"Jl. Perintis Kemerdekaan Kav. 149 Pulo Gadung RT.1, RT.1/RW.1, Pulo Gadung, East Jakarta City, Jakarta 13260, Indonesia","hospital,point_of_interest,health,establishment",85,3.6,-6.1798543,106.9037935,"-6.1798543,106.9037935"
242,RS Premier Jatinegara,ChIJ5886Uv3zaS4RhR8qb6JOKYQ,"Jl. Jatinegara Timur No.85-87, RW.2, Bali Mester, Kecamatan Jatinegara, Kota Jakarta Timur, Daerah Khusus Ibukota Jakarta 13310, Indonesia","hospital,point_of_interest,health,establishment",587,3.5,-6.2216352,106.868675,"-6.2216352,106.868675"
243,Menteng Mitra Afia Hospital,ChIJAc0D6Dn0aS4Ra2cOj7cEx_o,"Jl. Kali Pasir No.9, RT.14/RW.10, Kb. Sirih, Kec. Menteng, Kota Jakarta Pusat, Daerah Khusus Ibukota Jakarta 10340, Indonesia","hospital,physiotherapist,doctor,point_of_interest,health,establishment",305,3.8,-6.1868957,106.8383149,"-6.1868957,106.8383149"
244,ESMR Room Sahid Sahirman Memorial Hospital,ChIJFfjV9QL0aS4R7N1BIO2r0WA,"Jalan Jenderal Sudirman No.Kav.86, RT.10/RW.11, Karet Tengsin, Tanah Abang, RT.10/RW.11, Karet Tengsin, Kecamatan Tanah Abang, Kota Jakarta Pusat, Daerah Khusus Ibukota Jakarta 10220, Indonesia","hospital,health,point_of_interest,establishment",0,0.0,-6.2096306,106.8197254,"-6.2096306,106.8197254"
245,RSCM Building A,ChIJo_7e40H0aS4RIbAYxss0yR8,"Gedung A, Jl. Pangeran Diponegoro No.71, RW.5, Kenari, Kec. Senen, Kota Jakarta Pusat, Daerah Khusus Ibukota Jakarta 10430, Indonesia","hospital,health,point_of_interest,establishment",309,3.6,-6.1961274,106.8465183,"-6.1961274,106.8465183"
246,RSUD Johar Baru,ChIJTfV4m070aS4RggjY0BNSUKU,"Jl. Tanah Tinggi XII No.15-23, RT.10/RW.9, Tanah Tinggi, Kec. Johar Baru, Kota Jakarta Pusat, Daerah Khusus Ibukota Jakarta 10540, Indonesia","hospital,health,point_of_interest,establishment",332,3.8,-6.1818835,106.8504347,"-6.1818835,106.8504347"
247,CMU 2 Rumah Sakit Umum Pusat Nasional Dr. Cipto Mangunkusumo,ChIJE5Q7Gmr0aS4RNKOM2sEae-U,"Jl. Pangeran Diponegoro No.71, RW.5, Kenari, Kec. Senen, Kota Jakarta Pusat, Daerah Khusus Ibukota Jakarta 10430, Indonesia","hospital,health,point_of_interest,establishment",3,5.0,-6.1970429,106.8466532,"-6.1970429,106.8466532"
248,RSUD Pasar Minggu,ChIJt8qmfhHyaS4RC5qlxCmCMrA,"Jl. TB Simatupang No.1, RW.5, Ragunan, Ps. Minggu, Kota Jakarta Selatan, Daerah Khusus Ibukota Jakarta 12550, Indonesia","hospital,health,point_of_interest,establishment",1520,4.0,-6.2937995,106.8200275,"-6.2937995,106.8200275"
249,Unit Radiologi RS Jakarta,ChIJGbLIIqHxaS4RCHXHtWrgnUQ,"Lt.1 Gedung RS Jakarta, Jl. Garnisun 1 Jl. Jenderal Sudirman, RT.5/RW.4, Karet Semanggi, Kecamatan Setiabudi, Kota Jakarta Selatan, Daerah Khusus Ibukota Jakarta 12930, Indonesia","hospital,health,point_of_interest,establishment",0,0.0,-6.218554600000001,106.8163011,"-6.2185546,106.8163011"
250,Budhi Asih Hospital,ChIJISSowarzaS4RoQNrDYOEHgU,"Jl. Dewi Sartika No.200, RT.1/RW.3, Cawang, Kec. Kramat jati, Kota Jakarta Timur, Daerah Khusus Ibukota Jakarta 13640, Indonesia","hospital,health,point_of_interest,establishment",1143,3.6,-6.255885,106.8630997,"-6.255885,106.8630997"
251,Dharma Nugraha Hospital,ChIJOdLLQ5X0aS4R9eYLHztqyoY,"Jl. Balai Pustaka Baru No.19, RT.7/RW.7, Rawamangun, Kec. Pulo Gadung, Kota Jakarta Timur, Daerah Khusus Ibukota Jakarta 13220, Indonesia","hospital,health,point_of_interest,establishment",133,3.8,-6.1962363,106.8863043,"-6.1962363,106.8863043"
252,Kemang Medical Care Hospital,ChIJ4SZPjh3yaS4RqGN-RwNMLr4,"Jl. Ampera Raya No.34, Ragunan, Ps. Minggu, Kota Jakarta Selatan, Daerah Khusus Ibukota Jakarta 12540, Indonesia","hospital,health,point_of_interest,establishment",322,3.9,-6.286162099999999,106.8192103,"-6.2861621,106.8192103"
253,Rumah Sakit Jakarta Medical Center (JMC),ChIJrwvQchnyaS4RelwtOrbP0Fw,"Jl. Buncit Raya No.15, RT.1/RW.9, Kalibata, Kec. Pancoran, Kota Jakarta Selatan, Daerah Khusus Ibukota Jakarta 12740, Indonesia","doctor,hospital,health,point_of_interest,establishment",810,4.2,-6.271399499999999,106.8302645,"-6.2713995,106.8302645"
254,Rsb. Angkasa,ChIJr4ZJQSr0aS4RbXbO35cmKYg,"Jl. Budi Kemuliaan No.12, Gambir, Kecamatan Gambir, Kota Jakarta Pusat, Daerah Khusus Ibukota Jakarta 10110, Indonesia","hospital,health,point_of_interest,establishment",0,0.0,-6.1801605,106.819657,"-6.1801605,106.819657"
255,Jakarta Heart Centre,ChIJTXlq4370aS4RybfPi4L6uAk,"Jl. Matraman Raya No.23, RT.2/RW.1, Palmeriam, Kec. Matraman, Kota Jakarta Timur, Daerah Khusus Ibukota Jakarta 13140, Indonesia","hospital,health,point_of_interest,establishment",1326,4.7,-6.200256899999999,106.8553287,"-6.2002569,106.8553287"
256,YARSI Hospital,ChIJ1eIwywb1aS4RvZCQMjrnAG0,"Jl. Letjen Suprapto No.Kav 13, RT.10/RW.5, Cemp. Putih Tim., Kec. Cemp. Putih, Kota Jakarta Pusat, Daerah Khusus Ibukota Jakarta 10510, Indonesia","hospital,health,point_of_interest,establishment",699,4.5,-6.1697669,106.8693057,"-6.1697669,106.8693057"
257,Regional General Hospital Matraman,ChIJobOZ5Yf0aS4RdLbeEBKBApc,"Jalan Kebon Kelapa No.29, RT.1/RW.10, Utan Kayu Sel., Kec. Matraman, Kota Jakarta Timur, Daerah Khusus Ibukota Jakarta 13120, Indonesia","hospital,health,point_of_interest,establishment",471,3.6,-6.2061227,106.8660452,"-6.2061227,106.8660452"
258,Rumah Sakit Dharma Nugraha,ChIJN67IOGb0aS4RNdkEAMwvrXI,"Jl. Balai Pustaka Baru No.9, Palmeriam, Kec. Matraman, Kota Jakarta Timur, Daerah Khusus Ibukota Jakarta 13220, Indonesia","hospital,health,point_of_interest,establishment",0,0.0,-6.199342,106.8546,"-6.199342,106.8546"
259,Rumah Sakit Harapan Jayakarta,ChIJ_edwC7b0aS4R3k5TGVxvPrQ,"Blok KM No.18, Jl. Raya Bekasi No.7, RW.11, Jatinegara, Kec. Cakung, Kota Jakarta Timur, Daerah Khusus Ibukota Jakarta 13930, Indonesia","hospital,health,point_of_interest,establishment",371,3.0,-6.1949967,106.9062321,"-6.1949967,106.9062321"
260,Primaya Hospital PGI Cikini,ChIJWVesV0f0aS4RIzUynEuekFc,"Jl. Raden Saleh Raya No.40, RT.12/RW.2, Cikini, Kec. Menteng, Kota Jakarta Pusat, Daerah Khusus Ibukota Jakarta 10330, Indonesia","hospital,health,point_of_interest,establishment",579,4.1,-6.1915629,106.8419314,"-6.1915629,106.8419314"
261,Rumah Sakit Umum Daerah Tamansari,ChIJv4ZMDf31aS4RjAFOFx0OTVQ,"Jl. Madu No.10A, RT.2/RW.3, Mangga Besar, Kec. Taman Sari, Kota Jakarta Barat, Daerah Khusus Ibukota Jakarta 11180, Indonesia","doctor,hospital,health,point_of_interest,establishment",321,3.6,-6.143787199999999,106.8192196,"-6.1437872,106.8192196"
262,RSUD Kebayoran Lama,ChIJR5Cv0hHxaS4R6Tc7-iExRGE,"Jl. Jatayu, RT.1/RW.12, Kby. Lama Sel., Kec. Kby. Lama, Kota Jakarta Selatan, Daerah Khusus Ibukota Jakarta 12240, Indonesia","hospital,health,point_of_interest,establishment",710,4.7,-6.2487219,106.7856259,"-6.2487219,106.7856259"
263,RS Dharmais,ChIJ91BSmI32aS4Rt0W2MtJv-q4,"Letjen S. Parman St No.Kav 84-86, RT.4/RW.9, South Bambu City, Palmerah, West Jakarta City, Jakarta 11420, Indonesia","hospital,health,point_of_interest,establishment",98,3.7,-6.1867534,106.7978816,"-6.1867534,106.7978816"
264,Rumah sakit ibu dan anak jakarta,ChIJBXWZAD70aS4RdCAT5G54I5U,"RR3P+F6W, RT.10/RW.2, Gondangdia, Menteng, Central Jakarta City, Jakarta 10310, Indonesia","hospital,health,point_of_interest,establishment",1,5.0,-6.196263399999999,106.8355712,"-6.1962634,106.8355712"
265,Satya Negara Hospital,ChIJ8-y7vn71aS4RdpsAqmX-dKY,"Jl. Agung Utara Raya Blok A No.1, Sunter, Jkt Utara, Daerah Khusus Ibukota Jakarta 14350, Indonesia","hospital,health,point_of_interest,establishment",441,3.7,-6.1389656,106.8616849,"-6.1389656,106.8616849"
266,Rumah Sakit Haji Jakarta,ChIJucc8cKLyaS4RGih3jYUAvT8,"Jl. Raya Pd. Gede No.4, RT.1/RW.1, Lubang Buaya, Kec. Makasar, Kota Jakarta Timur, Daerah Khusus Ibukota Jakarta 13650, Indonesia","hospital,health,point_of_interest,establishment",529,3.5,-6.2898748,106.8892801,"-6.2898748,106.8892801"
267,Hospital Manuela,ChIJoQ_Ro931aS4R4INRjGLYTII,"Jl. Mangga Besar VIII No.23, RT.4/RW.1, Taman Sari, Kec. Taman Sari, Kota Jakarta Barat, Daerah Khusus Ibukota Jakarta 11150, Indonesia","hospital,health,point_of_interest,establishment",5,4.6,-6.150455,106.8258098,"-6.150455,106.8258098"
268,RS Medika Permata Hijau,ChIJdTTnN9P2aS4RFQyCpqmt-rk,"Jl. Raya Kby. Lama No.64, RW.8, Sukabumi Sel., Kec. Kb. Jeruk, Kota Jakarta Barat, Daerah Khusus Ibukota Jakarta 11560, Indonesia","hospital,health,point_of_interest,establishment",542,3.3,-6.2181589,106.7779555,"-6.2181589,106.7779555"
269,RSIA TAMBAK,ChIJf69x4nH0aS4RDQNa0p9g9z8,"Jl. Tambak No.18, Pegangsaan, Kec. Menteng, Kota Jakarta Pusat, Daerah Khusus Ibukota Jakarta 10320, Indonesia","hospital,health,point_of_interest,establishment",318,4.3,-6.2062368,106.8484765,"-6.2062368,106.8484765"
270,RSIA Lombok Dua Dua Surabaya,ChIJHTXJEcX71y0R9egY3JgtjT4,"Jl. Flores No.12, Ngagel, Kec. Wonokromo, Surabaya, Jawa Timur 60246, Indonesia","hospital,health,point_of_interest,establishment",312,4.3,-7.278480999999999,112.748947,"-7.278481,112.748947"
271,Rumah Sakit RSIA Lombok Dua Dua Lontar,ChIJI7l0EzP81y0RzLRSx-X_DAI,"Jl. Raya Lontar No.109, Lontar, Kec. Sambikerep, Surabaya, Jawa Timur 60216, Indonesia","hospital,doctor,health,point_of_interest,establishment",237,3.9,-7.284427300000001,112.6695692,"-7.2844273,112.6695692"
272,Rumah Sakit Metro Medika Lombok,ChIJ2yX6nMHAzS0R1-Iw0cEHlAI,"Jl. Jend. Sudirman No.18a, Rembiga, Kec. Selaparang, Kota Mataram, Nusa Tenggara Bar. 83124, Indonesia","hospital,doctor,health,point_of_interest,establishment",52,3.4,-8.5628069,116.1124334,"-8.5628069,116.1124334"
273,Rumah Sakit Umum Daerah Kabupaten Lombok Utara,ChIJq6qqqjrbzS0R-BTNdvSxPhQ,"J5V5+XXW, Jl. Tioq Tata, Tunaq, Tanjung, North Lombok Regency, West Nusa Tenggara 83352, Indonesia","hospital,doctor,health,point_of_interest,establishment",53,3.7,-8.3550002,116.1599494,"-8.3550002,116.1599494"
274,Rumah Sakit Risa Sentra Medika Lombok Timur,ChIJAVUE3B9MzC0RNskZCmRagtg,"Jl. Pejanggik No.78, Majidi, Kec. Selong, Kabupaten Lombok Timur, Nusa Tenggara Bar. 83611, Indonesia","dentist,hospital,health,point_of_interest,establishment",172,4.2,-8.6524533,116.519008,"-8.6524533,116.519008"
275,Saint Antonius Catholic Hospital,ChIJj66mqGfAzS0R8Q1IEVz6ubc,"Jl. Koperasi No.61, Dayan Peken, Kec. Ampenan, Kota Mataram, Nusa Tenggara Bar. 83111, Indonesia","hospital,doctor,health,point_of_interest,establishment",40,4.2,-8.5704712,116.0795213,"-8.5704712,116.0795213"
276,RS INTERNATIONAL LOMBOK,ChIJnXbgcbivzS0RAbwuxP1BU0A,"57QR+9VF, Sengkol, Pujut, Central Lombok Regency, West Nusa Tenggara 83573, Indonesia","hospital,health,point_of_interest,establishment",0,0.0,-8.8115735,116.292182,"-8.8115735,116.292182"
277,RSUD Lombok Timur,ChIJCw_DIrZPzC0RzpCnN6iHpsQ,"Labuhan Haji, East Lombok Regency, West Nusa Tenggara 83616, Indonesia","hospital,health,point_of_interest,establishment",54,4.1,-8.692573399999999,116.5685057,"-8.6925734,116.5685057"
278,General Hospital Selong,ChIJ6WNhgbxOzC0RCzYqj8s-hPA,"Jl. DR. Cipto Mangun Kusumo No.6, Majidi, Kec. Selong, Kabupaten Lombok Timur, Nusa Tenggara Bar. 83611, Indonesia","dentist,hospital,health,point_of_interest,establishment",96,4.0,-8.6513157,116.5281754,"-8.6513157,116.5281754"
279,RS Hermina Lombok,ChIJm4mHg4O_zS0ROhnoY2zhVGw,"93MX+5F3, Pagutan, Mataram, Mataram City, West Nusa Tenggara 83116, Indonesia","hospital,health,point_of_interest,establishment",0,0.0,-8.617119299999999,116.0986641,"-8.6171193,116.0986641"
280,Rsup mataram lombok,ChIJx_EURTS_zS0RYS3YoWs1Xcg,"94RJ+MQR, Dasan Cermen, Sandubaya, Mataram City, West Nusa Tenggara 83232, Indonesia","hospital,health,point_of_interest,establishment",9,2.2,-8.608257199999999,116.1318808,"-8.6082572,116.1318808"
281,Harapan Keluarga Hospital,ChIJJ7XURVfHzS0RHmZgMZdGVqk,"Jl. Ahmad Yani No.9, Selagalas, Kec. Sandubaya, Kota Mataram, Nusa Tenggara Bar. 83237, Indonesia","hospital,health,point_of_interest,establishment",441,4.2,-8.579299899999999,116.1468253,"-8.5792999,116.1468253"
282,Islamic Hospital Namira,ChIJR4kc46VOzC0Rpi3OAGWaOLs,"Jl. KH Ahmad Dahlan No.17, Pancor, Kec. Selong, Kabupaten Lombok Timur, Nusa Tenggara Bar. 83612, Indonesia","hospital,doctor,health,point_of_interest,establishment",251,4.1,-8.6473136,116.5199088,"-8.6473136,116.5199088"
283,Rs Tanjung,ChIJx0Prp1rdzS0RUiLpgv7d7eI,"H3J2+3X2, Malaka, Pemenang, North Lombok Regency, West Nusa Tenggara 83352, Indonesia","hospital,health,point_of_interest,establishment",0,0.0,-8.4198687,116.0523837,"-8.4198687,116.0523837"
284,RS Sumbawa,ChIJj8HzV1mwzS0RXFOM1JZ5AUk,"Jl. Gajah Mada No.1, Leneng, Kec. Praya, Kabupaten Lombok Tengah, Nusa Tenggara Bar. 83521, Indonesia","hospital,health,point_of_interest,establishment",1,5.0,-8.700838599999999,116.2607001,"-8.7008386,116.2607001"
285,RSUD GERUNG LOMBOK BARAT NTB,ChIJgR6vM-S9zS0R9C5Hkfr9Yj4,"849F+59J, North Gerung, Gerung, West Lombok Regency, West Nusa Tenggara 83363, Indonesia","hospital,health,point_of_interest,establishment",16,2.5,-8.6820412,116.1233808,"-8.6820412,116.1233808"
286,RSUD Praya,ChIJl5UYoaSxzS0RJDAIE06Mwjo,"77XW+424 Hasyim, Jl. H Lalu Hasim, Tiwugalih, Praya, Central Lombok Regency, West Nusa Tenggara 83511, Indonesia","hospital,doctor,health,point_of_interest,establishment",193,2.8,-8.7022488,116.2950823,"-8.7022488,116.2950823"
287,Rumah Sakit Mandalika,ChIJeTdBqPapzS0RIcp5shUXDVk,"57QR+8RH, Jl. Sengkol, Kuta, Kec. Pujut, Kabupaten Lombok Tengah, Nusa Tenggara Bar. 83573, Indonesia","hospital,health,point_of_interest,establishment",60,4.8,-8.8116826,116.2921058,"-8.8116826,116.2921058"
288,rumah sakit umum selong,ChIJj4sS_ShJzC0Ry9TV1juWBdc,"CGJH+82J, Aikmel, Selong, East Lombok Regency, West Nusa Tenggara 83653, Indonesia","hospital,health,point_of_interest,establishment",0,0.0,-8.569155600000002,116.5275278,"-8.5691556,116.5275278"
289,Mataram Police Hospitals,ChIJc813S2PAzS0RIPrbMe-xxfo,"Jl. Langko No.64, Pejeruk, Kec. Ampenan, Kota Mataram, Nusa Tenggara Bar. 83112, Indonesia","hospital,doctor,health,point_of_interest,establishment",590,4.8,-8.577452,116.0843583,"-8.577452,116.0843583"
290,Patut Patuh Patju Hospital,ChIJVVVVVWW8zS0RpKp3_7Q8XOM,"Jl. H. Lalu Anggrat BA No. 2, Gerung, Gerung Utara, Kec. Gerung, Kabupaten Lombok Barat, Nusa Tenggara Bar. 83363, Indonesia","hospital,health,point_of_interest,establishment",117,3.4,-8.6827877,116.1233126,"-8.6827877,116.1233126"
291,Rumah Sakit Umum dr.sudjono,ChIJ52d1h7xOzC0Rbz99AksbIBI,"8GXH+C9Q, Jl. Prof. M Yamin SH, Khusus Kota Selong, Kec. Selong, Kabupaten Lombok Timur, Nusa Tenggara Bar. 83611, Indonesia","hospital,health,point_of_interest,establishment",0,0.0,-8.651411,116.5284715,"-8.651411,116.5284715"
292,Lombok Hospital,ChIJScDj48hJzC0R8GjYmOZNVXs,"Jl. Raya Labuhan Lombok No.2, Apitaik, Kec. Pringgabaya, Kabupaten Lombok Timur, Nusa Tenggara Bar. 83654, Indonesia","hospital,health,point_of_interest,establishment",25,4.8,-8.5724194,116.6033026,"-8.5724194,116.6033026"
293,Ruang ICU RSUD Kab. Lombok Utara,ChIJqTK4wL_bzS0R4kHM2MxjJm0,"J5V6+V2J, Tanjung, North Lombok Regency, West Nusa Tenggara 83352, Indonesia","hospital,health,point_of_interest,establishment",2,3.0,-8.355290499999999,116.160022,"-8.3552905,116.160022"
294,RS Islam Yatofa,ChIJA5035_23zS0RgGeFxBSTw5Y,"Jalan Praya Montong Terep Km.7, Bodak, Kec. Praya, Kabupaten Lombok Tengah, Nusa Tenggara Bar. 83511, Indonesia","hospital,health,point_of_interest,establishment",24,4.0,-8.6508992,116.3014861,"-8.6508992,116.3014861"
295,RSUD Dr. R. Soedjono Selong,ChIJSdQNCLxOzC0R7qktVFYmIpc,"Jl. Prof. M Yamin SH No.55, Khusus Kota Selong, Kec. Selong, Kabupaten Lombok Timur, Nusa Tenggara Bar. 83611, Indonesia","hospital,health,point_of_interest,establishment",254,4.0,-8.6506821,116.528355,"-8.6506821,116.528355"
296,Rumah Sakit Permata Hati Lombok Timur,ChIJYQFZx5RLzC0RaUtLR-CD5xc,"Masbagik Sel., Kec. Masbagik, Kabupaten Lombok Timur, Lotim, Nusa Tenggara Bar. 83661, Indonesia","hospital,health,point_of_interest,establishment",4,5.0,-8.6342208,116.4916092,"-8.6342208,116.4916092"
297,RS Puri Indah,ChIJhYl8oN3BzS0RPi02RbGgwUw,"F3JX+C5C, Lembah Sari, Batu Layar, West Lombok Regency, West Nusa Tenggara 83351, Indonesia","hospital,health,point_of_interest,establishment",0,0.0,-8.5189342,116.0979048,"-8.5189342,116.0979048"
298,Risa Sentra Medika Hospital,ChIJRTqROVi_zS0RXivRyOkGwhE,"Jl. Pejanggik No.115, Cilinaya, Kec. Cakranegara, Kota Mataram, Nusa Tenggara Bar. 83239, Indonesia","hospital,dentist,health,point_of_interest,establishment",183,3.7,-8.5871674,116.1228137,"-8.5871674,116.1228137"
299,RSI. S. ANGGORO,ChIJCRnjz2u1zS0R2skJiiVgJn4,"9C55+QM6, Jenggik, Kec. Terara, Kabupaten Lombok Timur, Nusa Tenggara Bar. 83663, Indonesia","hospital,health,point_of_interest,establishment",1,5.0,-8.640571,116.4092368,"-8.640571,116.4092368"
300,Siloam Hospitals Mataram,ChIJh3yB1WS_zS0R-VDYJcHiSew,"Jl. Majapahit No.10, Pagesangan, Kec. Mataram, Kota Mataram, Nusa Tenggara Bar. 83115, Indonesia","hospital,health,point_of_interest,establishment",707,4.4,-8.5937875,116.0987041,"-8.5937875,116.0987041"
301,Rumah Sakit Umum Praya,ChIJXWyF-UuwzS0RIC231fgH3kY,"Jl. Basuki Rahmat No.11, Prapen, Kec. Praya, Kabupaten Lombok Tengah, Nusa Tenggara Bar. 83518, Indonesia","hospital,health,point_of_interest,establishment",0,0.0,-8.710330899999999,116.2724117,"-8.7103309,116.2724117"
302,Ruang Manajemen RS GUM,ChIJxW9rJHu_zS0RDSuiPHs19Qs,"Jl. Majapahit No.10, Pagesangan, Kec. Sekarbela, Kabupaten Lombok Barat, Nusa Tenggara Bar. 83115, Indonesia","hospital,health,point_of_interest,establishment",1,5.0,-8.593873499999999,116.0987629,"-8.5938735,116.0987629"
303,Rumah Sakit Awet Muda,ChIJDTrf5Wa4zS0RlOfJGjYntTs,"Nyur Lembang, Narmada, West Lombok Regency, West Nusa Tenggara 83371, Indonesia","hospital,health,point_of_interest,establishment",55,3.7,-8.5975147,116.1909677,"-8.5975147,116.1909677"
304,RSUD PATUH KARYA Lombok Timur,ChIJm4XMo7NTzC0RVj0EOZ1ZEUk,"Jalan Arjanjang, Selebung Ketangga, Keruak, Kabupaten Lombok Timur, Nusa Tenggara Bar. 83672, Indonesia","hospital,health,point_of_interest,establishment",5,3.4,-8.768212499999999,116.4833594,"-8.7682125,116.4833594"
305,Biomedika Hospital,ChIJ4bAP8EG_zS0R7f7JoPYj56Q,"Jl. Bung Karno No.143, Pagutan Bar., Kec. Mataram, Kota Mataram, Nusa Tenggara Bar. 83117, Indonesia","hospital,health,point_of_interest,establishment",129,4.2,-8.6052176,116.1135622,"-8.6052176,116.1135622"
306,Rumah Sakit Kusta Sepolong,ChIJCwAAAAA3zC0Rxsdan93sr_Q,"FHP6+J9H, Suela, Kecamatan Selong, East Lombok Regency, West Nusa Tenggara, Indonesia","hospital,health,point_of_interest,establishment",0,0.0,-8.513447,116.560986,"-8.513447,116.560986"
307,OMNI Hospital Jenggik Silk Town,ChIJWU6j5lO1zS0RHTMGrFZj1zU,"998M+HP5, Jenggik, Terara, East Lombok Regency, West Nusa Tenggara 83553, Indonesia","hospital,health,point_of_interest,establishment",0,0.0,-8.633607399999999,116.3843469,"-8.6336074,116.3843469"
308,Siti Hajar Islamic Hospital,ChIJASITl1-_zS0R5sz35t8nIv0,"Jl. Catur Warga No.8B, Mataram Tim., Kec. Mataram, Kota Mataram, Nusa Tenggara Bar. 83126, Indonesia","hospital,doctor,health,point_of_interest,establishment",230,3.3,-8.5871336,116.1143391,"-8.5871336,116.1143391"
309,KLINIK HARAPAN PUJUT,ChIJFbf4i8WuzS0RkIAcqTtoooI,"673W+4CV, Sengkol, Pujut, Central Lombok Regency, West Nusa Tenggara 83573, Indonesia","hospital,health,point_of_interest,establishment",7,4.4,-8.7971301,116.2960392,"-8.7971301,116.2960392"
310,"BPM Bunda Yunita Eka Salisna, Skeb. Bd",ChIJjVy4wHTbzS0Rk6epXu1k8h0,"J5X5+H83, Jl. Bayangkara, Tanjung, Kec. Tj., Kabupaten Lombok Utara, Nusa Tenggara Bar. 83352, Indonesia","hospital,health,point_of_interest,establishment",1,5.0,-8.351955799999999,116.1584917,"-8.3519558,116.1584917"
311,RSIA BHUMI BUNDA,ChIJHcmlQgCxzS0RLxBK0MTMgpc,"874H+PWC, Praya, Central Lombok Regency, West Nusa Tenggara 83514, Indonesia","hospital,health,point_of_interest,establishment",69,3.2,-8.6931757,116.2797723,"-8.6931757,116.2797723"
312,RSIA Permata Hati,ChIJhbfBMn7AzS0RkPoYPUkGmp4,"Jl. Majapahit No.10C, Kekalik Jaya, Kec. Sekarbela, Kota Mataram, Nusa Tenggara Bar. 83114, Indonesia","hospital,doctor,health,point_of_interest,establishment",646,4.5,-8.585369,116.087825,"-8.585369,116.087825"
313,POSKESDES EYAT MAYANG,ChIJc0rkTAKjzS0Ri9UIzzbTc0c,"East Sekotong, Lembar, West Lombok Regency, West Nusa Tenggara 83364, Indonesia","hospital,health,point_of_interest,establishment",1,5.0,-8.7617092,116.0736553,"-8.7617092,116.0736553"
314,Rumah Sakit Hewan Pendidikan,ChIJV0y3szHBzS0RnlEa-trO6cg,"Jl. Pariwisata No.47, Gn. Sari, Kec. Gunungsari, Kabupaten Lombok Barat, Nusa Tenggara Bar. 83351, Indonesia","hospital,health,point_of_interest,establishment",0,0.0,-8.5410333,116.1009194,"-8.5410333,116.1009194"
315,Puskesdes Sesaot,ChIJ6cSjYiHJzS0RAdnO4sRMamA,"F65V+8J9, Sesaot, Narmada, West Lombok Regency, West Nusa Tenggara 83371, Indonesia","hospital,health,point_of_interest,establishment",1,4.0,-8.541717799999999,116.2441149,"-8.5417178,116.2441149"
316,RSIA Kuncup Bunga Selong,ChIJNdJYw5dOzC0R1d-ybdhtn0s,"Jl. DR. Cipto Mangun Kusumo No.16, Khusus Kota Selong, Kec. Selong, Kabupaten Lombok Timur, Nusa Tenggara Bar. 83619, Indonesia","hospital,health,point_of_interest,establishment",27,4.7,-8.6567194,116.5273294,"-8.6567194,116.5273294"
317,POLINDES MENDANA RAYA,ChIJyZMeqFBSzC0RVzYZoGn5OVA,"Jl. Keruak Pancor Km.03 Mendana Raya Timur, Senyiur, Keruak, Kabupaten Lombok Timur, Nusa Tenggara Bar. 83672, Indonesia","hospital,health,point_of_interest,establishment",1,1.0,-8.750407599999999,116.4731737,"-8.7504076,116.4731737"
318,RUMAH BERSALIN HYRTHADY,ChIJoyrHKeS2zS0Ra9fbW89Ug08,"Pagutan, Batukliang, Central Lombok Regency, West Nusa Tenggara 83552, Indonesia","hospital,health,point_of_interest,establishment",1,5.0,-8.628643199999999,116.2860982,"-8.6286432,116.2860982"
319,POLINDES MERTAK,ChIJc69vcmSrzS0RBGZILQqeU4Q,"Kelekuh, Mertak, Pujut, Central Lombok Regency, West Nusa Tenggara 83573, Indonesia","hospital,health,point_of_interest,establishment",0,0.0,-8.8848781,116.3627659,"-8.8848781,116.3627659"
320,RSUD Provinsi NTB,ChIJcYeo8QeQyy0ReHBt5C4imtQ,"Jl. Prabu Rangkasari, Dasan Cermen, Kec. Sandubaya, Kota Mataram, Nusa Tenggara Bar. 84371, Indonesia","hospital,health,point_of_interest,establishment",873,4.2,-8.6080776,116.1321419,"-8.6080776,116.1321419"
321,Mayapada Hospital-Jenggik Silk Town,ChIJA48g1XC1zS0RYUQh4hxjQV8,"998M+HP5, Unnamed Road, Jenggik, Kec. Terara, Kabupaten Lombok Timur, Nusa Tenggara Bar. 83553, Indonesia","hospital,health,point_of_interest,establishment",0,0.0,-8.633607399999999,116.3843469,"-8.6336074,116.3843469"
322,PUSKESMAS PEMBANTU BEBUAK,ChIJuZxGqFa0zS0RdD-qXQcRZos,"Jl. Purbaya No.18, Bebuaq, Kec. Kopang, Kabupaten Lombok Tengah, Nusa Tenggara Bar. 83553, Indonesia","hospital,health,point_of_interest,establishment",0,0.0,-8.612882899999999,116.3668824,"-8.6128829,116.3668824"
323,POLIKLINIK RAWAT JALAN RSI NAMIRA PANCOR,ChIJUxug-xNPzC0RWph0BZQahiQ,"9G29+VPG, Unnamed Road, Pancor, Kec. Selong, Kabupaten Lombok Timur, Nusa Tenggara Bar. 83611, Indonesia","hospital,health,point_of_interest,establishment",0,0.0,-8.6478041,116.519329,"-8.6478041,116.519329"
324,Rumah Sakit Islam Yatofa,ChIJnwEAAACxzS0Rla3Kg4z1eVg,"874H+534, Praya, Central Lombok Regency, West Nusa Tenggara, Indonesia","hospital,health,point_of_interest,establishment",0,0.0,-8.694621999999999,116.277708,"-8.694622,116.277708"
325,Polindes Kalijaga Tengah,ChIJT4us4QlJzC0RaUOGFkq7PCA,"CG7R+VM7, Jln. H. Zakaria Fakhrudin, Kalijaga Tengah, Kec. Aikmel, Kabupaten Lombok Timur, Nusa Tenggara Bar., Indonesia","hospital,health,point_of_interest,establishment",1,5.0,-8.5853478,116.5416829,"-8.5853478,116.5416829"
326,RSJ.MUTIARA SUKMA Prov. NTB,ChIJVTH08uzHzS0R-KOsou2D3QI,"Jl. Ahmad Yani No.1, Selagalas, Kec. Sandubaya, Kota Mataram, Nusa Tenggara Bar. 83237, Indonesia","health,point_of_interest,establishment",40,4.2,-8.5767502,116.1463421,"-8.5767502,116.1463421"
327,POLINDES SENGENGER,ChIJrcgYyPFNzC0RHBgDOEan-l0,"8F5M+XRJ, Jl. Montong Beliak, Sakra Sel., Kec. Sakra, Kabupaten Lombok Timur, Nusa Tenggara Bar. 83671, Indonesia","hospital,health,point_of_interest,establishment",0,0.0,-8.6900321,116.4845137,"-8.6900321,116.4845137"
328,RS RISA BUNGA,ChIJmcv2BZBPzC0RPPKEg2Plkc0,"8GX9+2H8, Unnamed Road, Majidi, Kec. Selong, Kabupaten Lombok Timur, Nusa Tenggara Bar. 83611, Indonesia","hospital,health,point_of_interest,establishment",0,0.0,-8.652472999999999,116.5189657,"-8.652473,116.5189657"
329,Rumah Bersalin Hyrthady,ChIJ_____962zS0Rac7S6WHlzog,"977J+87M, Pagutan, Batukliang, Central Lombok Regency, West Nusa Tenggara 83552, Indonesia","hospital,health,point_of_interest,establishment",0,0.0,-8.6366673,116.2806599,"-8.6366673,116.2806599"
330,Rumah sakit international,ChIJnbCn-JavzS0R-oH8NxL6FCQ,"57QR+6V5, Sengkol, Pujut, Central Lombok Regency, West Nusa Tenggara 83573, Indonesia","hospital,health,point_of_interest,establishment",0,0.0,-8.8119927,116.2922379,"-8.8119927,116.2922379"
331,Regional General Hospital Kota Mataram,ChIJFa6nQEK_zS0REXzdXvytlnw,"Jl. Bung Karno No.3, Pagesangan Tim., Kec. Mataram, Kota Mataram, Nusa Tenggara Bar. 83127, Indonesia","doctor,hospital,health,point_of_interest,establishment",491,4.1,-8.5999535,116.1141547,"-8.5999535,116.1141547"
332,Rumah Bersalin RosidaHendra,ChIJO0mKRBGxzS0RTS-K6nHMk1M,"88HC+2J9, Monggas, Kopang, Central Lombok Regency, West Nusa Tenggara 83553, Indonesia","hospital,health,point_of_interest,establishment",0,0.0,-8.6724731,116.3216132,"-8.6724731,116.3216132"
333,Rumah Sakit Universitas Mataram,ChIJHcDjYX6_zS0R9MNtFir_3OA,"Jl. Majapahit No.62, Kekalik Jaya, Kec. Sekarbela, Kota Mataram, Nusa Tenggara Bar. 83114, Indonesia","hospital,doctor,health,point_of_interest,establishment",277,4.4,-8.5903513,116.0934423,"-8.5903513,116.0934423"
334,Sihabuddin.,ChIJ7Z2uAvVJzC0RPzQJXV6VRd4,"CG6R+FVX, Asmalang selatan.desa kalijaga tengah,kecamatan ,Aikmel.kabupaten lombok timur.Nusa tenggara Barat.kode, Kalijaga, Kec. Aikmel, Kabupaten Lombok Timur, Nusa Tenggara Bar. 83653, Indonesia","hospital,health,point_of_interest,establishment",2,4.5,-8.588771000000001,116.5422226,"-8.588771,116.5422226"
335,Rumah Bersalin Bu Ida,ChIJi6FkQFhTzC0RhUSs3LM7aQI,"6F9H+GHJ, Jerowaru, East Lombok Regency, West Nusa Tenggara 83672, Indonesia","hospital,health,point_of_interest,establishment",0,0.0,-8.7811729,116.4788777,"-8.7811729,116.4788777"
336,RSI UNISMA,ChIJ09O8eg2CeC4RZhUrqRNVVAs,"Jalan, Jalan Mayjen Haryono No.139, Dinoyo, Kec. Lowokwaru, Kota Malang, Jawa Timur 65144, Indonesia","hospital,health,point_of_interest,establishment",848,3.7,-7.9402626,112.6088354,"-7.9402626,112.6088354"
337,RSUD Dr. SAIFUL ANWAR MALANG,ChIJ57OHGgQp1i0RCLvnB6kFMO4,"Jl. Jaksa Agung Suprapto No.2, Klojen, Kec. Klojen, Kota Malang, Jawa Timur 65112, Indonesia","hospital,health,point_of_interest,establishment",2921,4.5,-7.9723572,112.6314089,"-7.9723572,112.6314089"
338,RSUD KOTA MALANG,ChIJqXg-QZQn1i0RkeUUy_-77CE,"Jl. Rajasa No.27, Bumiayu, Kec. Kedungkandang, Kota Malang, Jawa Timur 65116, Indonesia","hospital,health,point_of_interest,establishment",363,3.8,-8.025603499999999,112.6391301,"-8.0256035,112.6391301"
339,Lavalette General Hospital,ChIJ2ecCBzQo1i0R4EOA0v5khhc,"Jl. W.R. Supratman No.10, Rampal Celaket, Kec. Klojen, Kota Malang, Jawa Timur 65111, Indonesia","dentist,hospital,health,point_of_interest,establishment",1168,4.0,-7.9657547,112.6379207,"-7.9657547,112.6379207"
340,Hermina Hospital Tangkubanprahu,ChIJpbjAsyYo1i0R-0yfn2NJK0I,"Jl. Tangkuban Perahu No.31-33, Kauman, Kec. Klojen, Kota Malang, Jawa Timur 65119, Indonesia","hospital,health,point_of_interest,establishment",2255,3.9,-7.9780058,112.624481,"-7.9780058,112.624481"
341,Women & Children's Hospital Mardi Waloeja,ChIJYekliRgo1i0Ruj3eRNZ4JCE,"i, Jl. Kauman No.23, Kauman, Kec. Klojen, Kota Malang, Jawa Timur 65119, Indonesia","hospital,health,point_of_interest,establishment",94,4.0,-7.982996699999999,112.6278261,"-7.9829967,112.6278261"
342,Rumah Sakit Prasetya Husada,ChIJ4bTTMeaBeC4RGNJ66vk3ipE,"Jl. Raya Ngijo Karangploso No.25, Kendalsari, Ngijo, Kec. Karang Ploso, Kabupaten Malang, Jawa Timur 65152, Indonesia","hospital,health,point_of_interest,establishment",272,3.4,-7.9047265,112.6086911,"-7.9047265,112.6086911"
343,Rumah Sakit (RS) PTP XXIV - XXV Lavelette Malang,ChIJyeHVuDMo1i0RTagzRTqcif4,"Jl. W.R. Supratman No.2 A, Rampal Celaket, Kec. Klojen, Kota Malang, Jawa Timur 65111, Indonesia","hospital,health,point_of_interest,establishment",5,5.0,-7.965645500000001,112.6376646,"-7.9656455,112.6376646"
344,Muhammadiyah University Malang Hospital,ChIJx2Yg_R6CeC4RpXdwGbTRKAg,"Jl. Raya Ngelo Tlogomas No.45, Dusun Rambaan, Landungsari, Kec. Dau, Kota Malang, Jawa Timur 65144, Indonesia","dentist,hospital,health,point_of_interest,establishment",748,3.8,-7.925789899999999,112.5991661,"-7.9257899,112.5991661"
345,Rumah Sakit Universitas Brawijaya,ChIJP9u2duAp1i0R_uZJ3BtZGuM,"Jl. Soekarno - Hatta, Lowokwaru, Kec. Lowokwaru, Kota Malang, Jawa Timur 65141, Indonesia","hospital,health,point_of_interest,establishment",742,3.6,-7.941227499999999,112.6215363,"-7.9412275,112.6215363"
346,RSIA MAWAR (Mardi Waloeja Rampal),ChIJhVDztjMo1i0Reco1ZPoMcpA,"Jl. W.R. Supratman No.1, Rampal Celaket, Kec. Klojen, Kota Malang, Jawa Timur 65111, Indonesia","hospital,health,point_of_interest,establishment",218,4.8,-7.964898,112.6352319,"-7.964898,112.6352319"
347,RSU BRIMEDIKA MALANG,ChIJq_dwDHiCeC4RLdnMOAh3YIY,"Jl. Mayjend Panjaitan No.176, Penanggungan, Kec. Klojen, Kota Malang, Jawa Timur 65113, Indonesia","hospital,health,point_of_interest,establishment",112,4.8,-7.9530596,112.6192433,"-7.9530596,112.6192433"
348,Persada Hospital,ChIJ4yHErJYp1i0RIanyqjffpbs,"KOMPLEKS ARAYA BUSSINESS CENTER, Jl. Raden Panji Suroso KAV.II-IV, Purwodadi, Kec. Blimbing, Kota Malang, Jawa Timur 65126, Indonesia","hospital,health,point_of_interest,establishment",1377,4.0,-7.934985799999999,112.6502085,"-7.9349858,112.6502085"
349,Rumah Sakit Panti Nirmala,ChIJqekZDA8o1i0Rbq5SXgxdmvk,"Jl. Kebalen Wetan No.2-8, Kotalama, Kec. Kedungkandang, Kota Malang, Jawa Timur 65134, Indonesia","hospital,doctor,health,point_of_interest,establishment",789,4.1,-7.994312,112.6340581,"-7.994312,112.6340581"
350,Mother & Child Hospital Candra Gallery,ChIJs1LCHnaCeC4RuKOEhiHlCPs,"Jl. Andong No.3, Jatimulyo, Kec. Lowokwaru, Kota Malang, Jawa Timur 65141, Indonesia","hospital,doctor,health,point_of_interest,establishment",205,4.2,-7.947944999999999,112.619574,"-7.947945,112.619574"
351,RSIA Puri,ChIJ77s2ySco1i0Rr8ThRcf9cQo,"Taman Slamet St No.20, Gading Kasri, Klojen, Malang City, East Java 65115, Indonesia","hospital,health,point_of_interest,establishment",260,4.6,-7.9744496,112.6218371,"-7.9744496,112.6218371"
352,Rumah Sakit Umum Dr Han Sik Liang,ChIJ7VKg-ioo1i0RQupK_7qqOLI,"Jl. Simpang Ijen No.3, Oro-oro Dowo, Kec. Klojen, Kota Malang, Jawa Timur 65119, Indonesia","hospital,health,point_of_interest,establishment",0,0.0,-7.9639918,112.6221109,"-7.9639918,112.6221109"
353,Rsia Mutiara Bunda,ChIJmSzbqskp1i0RvQKDa9LxQRI,"Jl. Ciujung No.19, Purwantoro, Kec. Blimbing, Kota Malang, Jawa Timur 65126, Indonesia","hospital,health,point_of_interest,establishment",168,4.2,-7.953369599999999,112.641043,"-7.9533696,112.641043"
354,Mother & Child Hospital Puri Bunda,ChIJrywrYK0p1i0ReRLmywFCJdk,"Jl. Simpang Sulfat Utara No.60 A, Pandanwangi, Kec. Blimbing, Kota Malang, Jawa Timur 65126, Indonesia","hospital,health,point_of_interest,establishment",670,3.6,-7.9587645,112.6555326,"-7.9587645,112.6555326"
355,RSI Aisyiyah Malang,ChIJ1V8OA_WBdy4RJCgPwmFJoOQ,"Jl. Sulawesi No.16, Kasin, Kec. Klojen, Kota Malang, Jawa Timur 65117, Indonesia","dentist,hospital,health,point_of_interest,establishment",1278,4.2,-7.988681,112.6254476,"-7.988681,112.6254476"
356,RSIA Husada Bunda,ChIJGZgkdCko1i0RU5avohqjr9s,"Malang No. 2, Jl. Pahlawan Trip, Oro-oro Dowo, Klojen, Malang City, East Java 65112, Indonesia","hospital,health,point_of_interest,establishment",197,4.0,-7.968285399999999,112.6228173,"-7.9682854,112.6228173"
357,Poli Umum dan Poli Spesialis RSIA Muhammadiyah Malang,ChIJxd5gwaAp1i0RR5L2aK15MEU,"Jl. Kyai H. Wahid Hasyim No.26-30, Kauman, Kec. Klojen, Kota Malang, Jawa Timur 65119, Indonesia","hospital,health,point_of_interest,establishment",7,4.3,-7.9841279,112.6287343,"-7.9841279,112.6287343"
358,RS. Panti Waluya Sawahan / RKZ Malang,ChIJdStM8Bso1i0RAmtQ_HMrQtY,"Jl. Nusakambangan No.56, Kasin, Kec. Klojen, Kota Malang, Jawa Timur 65117, Indonesia","hospital,health,point_of_interest,establishment",316,3.9,-7.986567,112.6249675,"-7.986567,112.6249675"
359,Army Hospital Doctor Soepraoen,ChIJ65BPjx0o1i0R4Rbj0Mmi1DA,"Jl. S. Supriadi No.22, Sukun, Kec. Sukun, Kota Malang, Jawa Timur 65112, Indonesia","hospital,health,point_of_interest,establishment",857,4.0,-7.989864000000001,112.6204795,"-7.989864,112.6204795"
360,Rumah Sakit Umum Dokter Saiful Anwar,ChIJ-yWXhy0o1i0RP_Tbkrd9wP4,"Jl. Jaksa Agung Suprapto No.2, Rampal Celaket, Kec. Klojen, Kota Malang, Jawa Timur, Indonesia","hospital,health,point_of_interest,establishment",0,0.0,-7.964576199999999,112.6317045,"-7.9645762,112.6317045"
361,IGD RSIA REFA HUSADA,ChIJdbSRlpgn1i0ReL-VNyC7gm4,"Tlogowaru, Kedungkandang, Malang City, East Java 65132, Indonesia","hospital,health,point_of_interest,establishment",9,4.3,-8.035758800000002,112.6426445,"-8.0357588,112.6426445"
362,Rumah Bersalin (RB) Soerodjo,ChIJq58Rxx0o1i0RmnLfiExRiOs,"JL. S.Soepriad, No 39, Sukun, Kec. Sukun, Kota Malang, Jawa Timur 65139, Indonesia","hospital,health,point_of_interest,establishment",0,0.0,-7.988656,112.621856,"-7.988656,112.621856"
363,Poliklinik Hemodialisa Rumah Sakit Tk. II dr.Soepraoen Malang,ChIJpX1euB4p1i0R8x-T0CMdcSM,"2J5C+W6J, Sukun, Malang City, East Java 65147, Indonesia","hospital,health,point_of_interest,establishment",2,5.0,-7.9901595,112.6205187,"-7.9901595,112.6205187"
364,RSIA Permata Hati Malang,ChIJRdCMQMMp1i0R7dTrlutSVh4,"Jl. Danau Toba, Lesanpuro, Kec. Kedungkandang, Kota Malang, Jawa Timur 65138, Indonesia","hospital,health,point_of_interest,establishment",51,4.4,-7.9797897,112.6606777,"-7.9797897,112.6606777"
365,RSIA Melati Husada,ChIJFdTkNAIp1i0RSUIOhRIvcoU,"Kawi St No.32, Gading Kasri, Klojen, Malang City, East Java 65115, Indonesia","hospital,health,point_of_interest,establishment",1507,5.0,-7.9761054,112.6213605,"-7.9761054,112.6213605"
366,Rs Asrikaton Bamban,ChIJM8aLUuIo1i0R0TFU4HN6jWM,"Jl. Raya Bamban No.28, Meduran, Asrikaton, Kec. Pakis, Kabupaten Malang, Jawa Timur 65154, Indonesia","hospital,health,point_of_interest,establishment",2,5.0,-7.962323799999999,112.6827402,"-7.9623238,112.6827402"
367,Rumah Dinas RS dr. Soepraoen,ChIJBysQFP-DeC4RSnCEgLcAmgU,"2J69+XWM, Jl. S. Supriadi, Sukun, Kec. Sukun, Kota Malang, Jawa Timur 65147, Indonesia","hospital,health,point_of_interest,establishment",0,0.0,-7.9875372,112.6197891,"-7.9875372,112.6197891"
368,Poli BPJS RS Persada,ChIJXytGw-cp1i0RkwrMbaoNyTg,"Perumahan araya, Jl. Raya Blimbing Indah, Purwodadi, Kec. Blimbing, Kota Malang, Jawa Timur 65126, Indonesia","hospital,health,point_of_interest,establishment",7,3.4,-7.9345667,112.6507965,"-7.9345667,112.6507965"
369,Lobby Graha Puspa Husada RSSA,ChIJcyArmtgp1i0RiKMP6aWGrF4,"Jl. Attorney General Suprapto No. 2, Klojen, Kec. Klojen, Kota Malang, Jawa Timur 65111, Indonesia","hospital,health,point_of_interest,establishment",3,3.7,-7.9713164,112.6323738,"-7.9713164,112.6323738"
